Station number,Station name,Region,Rainfall (mm),Latitude (°),Longitude (°),Elevation (m)
58158,MURWILLUMBAH (BRAY PARK),NSW,199.5,-28.34,153.38,8
58137,KINGSCLIFF (WORAM PLACE),NSW,172.3,-28.26,153.58,5
40981,BURLEIGH WATERS ALERT,QLD,159.0,-28.08,153.43,-999
58204,BOAT HARBOUR (ROUS RIVER),NSW,155.0,-28.32,153.35,30
58186,NORTH MURWILLUMBAH (TWEED RIVER),NSW,150.0,-28.33,153.40,-999
58056,TWEED HEADS GOLF CLUB,NSW,140.6,-28.20,153.55,5
40417,MIAMI BARDON AVE,QLD,133.0,-28.07,153.42,5
40717,COOLANGATTA,QLD,121.8,-28.17,153.51,4
40848,LOWER SPRINGBROOK ALERT,QLD,108.2,-28.21,153.27,705
97085,MOUNT READ,TAS,101.8,-41.84,145.54,1120
58193,EUNGELLA (OXLEY RIVER),NSW,100.5,-28.35,153.29,20
40856,RAINBOW BEACH,QLD,100.0,-25.90,153.09,14
140010,TIN CAN BAY (DEFENCE),QLD,99.8,-25.94,152.96,31
40714,ROUND MOUNTAIN TM,QLD,97.0,-28.07,152.93,44
40945,ROUND MOUNTAIN ALERT,QLD,96.0,-28.07,152.93,62
40659,GREENBANK THOMPSON ROAD,QLD,95.6,-27.70,152.94,77
40197,MT TAMBORINE FERN ST,QLD,94.0,-27.97,153.20,515
40847,HINZE DAM HW ALERT,QLD,89.0,-28.05,153.28,82
40941,KOORALBYN ALERT,QLD,89.0,-28.07,152.85,326
40335,MT TAMBORINE ALERT,QLD,88.0,-27.97,153.21,520
40341,WONGAWALLAN ALERT,QLD,86.2,-27.88,153.21,360
40892,MT KANIGAN AL,QLD,86.0,-25.96,152.58,330
40688,MIVA,QLD,85.6,-25.96,152.49,44
40826,MIVA TM,QLD,82.0,-25.95,152.50,17
40881,AIR SEA RESCUE ALERT,QLD,81.0,-27.95,153.42,3
40761,WOLFFDENE ALERT,QLD,80.0,-27.78,153.19,0
59138,BOWRA SUGARLOAF,NSW,80.0,-30.66,152.65,870
59140,DORRIGO (OLD CORAMBA RD),NSW,80.0,-30.34,152.72,746
58208,CASINO AIRPORT AWS,NSW,76.6,-28.88,153.06,21
59078,PROMISED LAND (BELLINGEN (CRYSTAL CREEK),NSW,76.0,-30.35,152.90,105
97006,LAKE MARGARET DAM,TAS,75.4,-41.99,145.57,665
40478,K\'GARI EURONG,QLD,75.1,-25.50,153.13,9
58214,LISMORE AIRPORT AWS,NSW,74.8,-28.83,153.26,9
40846,CLEARVIEW ALERT,QLD,74.0,-28.00,153.31,3
40937,BENOBBLE ALERT,QLD,74.0,-28.00,153.16,72
40416,CLEARVIEW TM,QLD,73.0,-28.00,153.31,3
58070,ROSEBANK (REPENTANCE CREEK),NSW,72.8,-28.64,153.41,75
40938,BROMFLEET ALERT,QLD,71.0,-27.91,153.10,28
83084,FALLS CREEK,VIC,71.0,-36.87,147.28,1765
40120,LOWOOD DON ST,QLD,70.0,-27.46,152.57,51
40914,MT TARAMPA,QLD,69.4,-27.49,152.50,74
40844,BEECHMONT ALERT,QLD,69.0,-28.13,153.19,520
60165,MOORAL CREEK (THE DEN),NSW,68.0,-31.66,152.37,649
33076,YAAMBA,QLD,66.8,-23.13,150.37,19
40738,BROMFLEET TM,QLD,66.0,-27.91,153.11,28
40936,LUMEAH ALERT,QLD,66.0,-28.06,153.04,90
40284,BEERBURRUM FOREST STATION,QLD,65.4,-26.96,152.96,48
40944,RUDDS LANE ALERT,QLD,65.0,-28.17,152.98,87
40845,BINNA BURRA ALERT,QLD,64.0,-28.20,153.19,780
40068,DOUBLE ISLAND POINT LIGHTHOUSE,QLD,63.8,-25.93,153.19,96
85291,MOUNT BAW BAW,VIC,63.0,-37.84,146.27,1561
40785,CAROLE PARK ALERT,QLD,62.0,-27.60,152.95,80
40998,CALOUNDRA AIRPORT,QLD,61.4,-26.80,153.11,9
40874,BRISBANE ROAD ALERT,QLD,60.0,-27.61,152.91,-999
40189,SOMERSET DAM,QLD,59.2,-27.11,152.56,113
58206,CORNDALE (COOPERS CREEK),NSW,59.0,-28.72,153.36,25
58040,MULLUMBIMBY (FAIRVIEW FARM),NSW,58.8,-28.55,153.49,15
140008,CANUNGRA (DEFENCE),QLD,56.4,-28.04,153.19,108
40906,LENTHALLS DAM ALERT,QLD,56.0,-25.40,152.53,24
59148,KALANG (SPICKETTS CK (NOONANNIE)),NSW,55.4,-30.56,152.87,60
40922,KINGAROY AIRPORT,QLD,55.2,-26.57,151.84,434
40782,COORAN TM,QLD,55.0,-26.33,152.81,70
40825,MARODIAN TM,QLD,55.0,-25.90,152.35,19
40878,WATERFORD ALERT,QLD,55.0,-27.69,153.14,0
40211,ARCHERFIELD AIRPORT,QLD,54.2,-27.57,153.01,13
40931,O\'REILLYS ALERT,QLD,54.0,-28.23,153.14,913
40935,MACLEAN BRIDGE ALERT,QLD,54.0,-27.79,153.02,3
58201,TUNCESTER (LEYCESTER CREEK),NSW,54.0,-28.80,153.24,10
40854,LOGAN CITY WATER TREATMENT PLANT,QLD,53.6,-27.68,153.20,10
58198,BALLINA AIRPORT AWS,NSW,53.6,-28.84,153.56,1
39035,MELROSE,QLD,53.0,-23.14,149.97,60
58202,BENTLEY (BACK CREEK),NSW,53.0,-28.74,153.08,40
83094,HOWITT PLAINS (HIGH RIDGE),VIC,52.6,-37.22,146.60,1600
41052,JINGI JINGI,QLD,51.4,-26.69,151.10,365
91321,LOONGANA (SERENDIPITY),TAS,51.2,-41.40,145.93,468
97020,LAKE MARGARET POWER STATION,TAS,51.2,-42.00,145.54,320
40788,FORESTDALE(JOHNSON RD)AL,QLD,51.0,-27.66,153.00,80
40820,SOMERSET DAM TM,QLD,51.0,-27.12,152.56,61
40932,DARLINGTON ALERT,QLD,51.0,-28.26,153.09,300
96071,LAKE ST CLAIR NATIONAL PARK,TAS,50.8,-42.12,146.18,742
97091,QUEENSTOWN (SOUTH QUEENSTOWN),TAS,50.4,-42.10,145.55,118
40865,CANNON COVE AL,QLD,50.0,-28.09,152.72,225
40939,BEAUDESERT ALERT,QLD,50.0,-27.97,152.99,50
40964,REGENTS PARK,QLD,50.0,-27.67,153.04,38
58180,NIMBIN (GOOLMANGAR CREEK),NSW,50.0,-28.61,153.21,60
71075,PERISHER VALLEY AWS,NSW,49.8,-36.41,148.41,1738
56237,INVERELL (ELSMORE VILLAGE),NSW,49.4,-29.80,151.27,700
97024,WARRA,TAS,49.2,-43.06,146.70,495
40823,ROSENTRETERS BRIDGE TM,QLD,49.0,-27.14,152.33,102
56240,GUYRA (BOX POINT),NSW,49.0,-30.33,151.73,1340
58005,BRAYS CREEK (MISTY MOUNTAIN),NSW,49.0,-28.40,153.17,130
88103,MARYSVILLE GOLF COURSE,VIC,48.8,-37.50,145.75,400
60085,YARRAS (MOUNT SEAVIEW),NSW,48.6,-31.39,152.25,155
33285,THE GAP TM,QLD,48.0,-23.09,150.11,9
39340,MINGO CREEK ALERT,QLD,48.0,-25.32,151.72,100
40794,GREENBANK(THOMPSON RD)AL,QLD,48.0,-27.70,152.93,80
85042,JINDIVICK,VIC,48.0,-38.02,145.90,260
39334,HAZELDEAN,QLD,47.8,-24.02,150.96,66
58023,MCLEANS RIDGES (LASCOTT DRIVE),NSW,47.8,-28.79,153.40,120
86266,FERNY CREEK,VIC,47.4,-37.87,145.35,513
33320,MT JUKES,QLD,47.0,-21.01,148.91,55
40896,TEDDINGTON WEIR HW TM,QLD,47.0,-25.65,152.66,25
97054,ZEEHAN (WEST COAST PIONEERS MUSEUM),TAS,46.9,-41.88,145.34,175
39222,CANIA GORGE PARK,QLD,46.8,-24.66,150.96,302
59146,KALANG (KOOROOWI (SHARABEL)),NSW,46.5,-30.47,152.82,86
40764,GOLD COAST SEAWAY,QLD,46.4,-27.94,153.43,3
140009,GREENBANK (DEFENCE),QLD,46.4,-27.69,152.99,42
40913,BRISBANE,QLD,46.2,-27.48,153.04,8
40946,RATHDOWNEY ALERT,QLD,46.0,-28.22,152.87,84
40993,GYMPIE ALERT,QLD,46.0,-26.19,152.66,37
140007,REDLAND (ALEXANDRA HILLS),QLD,45.2,-27.54,153.24,51
1010,THEDA,WA,45.0,-14.79,126.50,210
58162,NASHUA (WILSONS RIVER),NSW,45.0,-28.73,153.46,30
33308,SAMUEL HILL AERO,QLD,44.8,-22.74,150.66,31
40940,YARRAHAPPINI ALERT,QLD,44.4,-27.83,152.99,40
86393,CAPE SCHANCK,VIC,44.4,-38.46,144.90,145
91194,MOUNT VICTORIA (UNA PLAIN),TAS,44.4,-41.35,147.80,710
9628,COLLIE,WA,44.2,-33.36,116.15,204
40824,FISHERMANS POCKET TM,QLD,44.0,-26.17,152.60,33
40831,IPSWICH ALERT,QLD,44.0,-27.61,152.76,-999
40893,GOOMBOORIAN ALERT,QLD,44.0,-26.06,152.77,80
40983,BEAUDESERT DRUMLEY STREET,QLD,44.0,-27.97,152.99,48
40390,TEDDINGTON WATERWORKS,QLD,43.8,-25.65,152.66,28
54076,KINGS PLAINS (WINDERMERE),NSW,43.8,-29.64,151.43,-999
85021,MOUNT USEFUL,VIC,43.8,-37.70,146.52,1440
40908,TEWANTIN RSL PARK,QLD,43.6,-26.39,153.04,6
57003,BONALBO POST OFFICE,NSW,43.1,-28.74,152.62,170
40376,TYUNGUN ALERT,QLD,43.0,-28.09,153.16,200
57124,POINT LOOKOUT,NSW,43.0,-30.48,152.40,1550
86072,MONBULK (SPRING ROAD),VIC,43.0,-37.88,145.42,-999
33059,PLANE CREEK SUGAR MILL,QLD,42.8,-21.43,149.22,16
40793,LYONS ALERT,QLD,42.8,-27.76,152.84,150
91259,LUNCHEON HILL (FORESTRY),TAS,42.8,-41.15,145.15,344
40209,POINT LOOKOUT,QLD,42.2,-27.44,153.55,41
40089,GOOMBOORIAN,QLD,42.0,-26.06,152.79,94
41515,FELTON TM,QLD,42.0,-27.85,151.68,405
97047,SAVAGE RIVER MINE,TAS,41.8,-41.49,145.21,352
9592,PEMBERTON,WA,41.7,-34.45,116.04,174
40405,HERVEY BAY AIRPORT,QLD,41.6,-25.32,152.88,13
40976,BRISBANE BOTANIC GARDENS MT COOT-THA,QLD,41.4,-27.48,152.98,65
58199,ROCK VALLEY (LEYCESTER CREEK),NSW,41.0,-28.74,153.16,20
40043,CAPE MORETON LIGHTHOUSE,QLD,40.8,-27.03,153.47,100
9714,KIRUP,WA,40.6,-33.70,115.89,260
41145,MARNHULL,QLD,40.6,-26.84,151.17,348
71032,THREDBO AWS,NSW,40.6,-36.49,148.29,1957
91055,LORINNA,TAS,40.6,-41.54,146.14,259
54153,CARODA (PALEROO),NSW,40.4,-30.12,150.13,488
83093,MT SUNDAY,VIC,40.2,-37.34,146.42,1420
39314,SEVENTEEN SEVENTY,QLD,40.0,-24.16,151.89,41
40754,RATHDOWNEY TM,QLD,40.0,-28.22,152.87,84
40978,BRIBIE ISLAND ALERT,QLD,40.0,-27.08,153.18,7
41560,GOONDIWINDI AIRPORT,QLD,40.0,-28.52,150.32,217
82112,OVENS RIVER @ EUROBIN,VIC,39.8,-36.65,146.86,-999
60141,TAREE AIRPORT AWS,NSW,39.6,-31.89,152.51,8
79103,GRAMPIANS (MOUNT WILLIAM),VIC,39.6,-37.30,142.60,1150
83001,OVENS RIVER @ HARRIETVILLE,VIC,39.6,-36.88,147.06,-999
91223,MARRAWAH,TAS,39.4,-40.91,144.71,107
40126,MARYBOROUGH,QLD,39.2,-25.51,152.72,9
40790,MT GRAVATT ALERT,QLD,39.0,-27.54,153.06,195
40814,MOY POCKET TM,QLD,39.0,-26.53,152.74,70
40875,BUNDAMBA SCHOOL ALERT,QLD,39.0,-27.61,152.81,-999
58148,LILLIAN ROCK (WILLIAMS ROAD),NSW,39.0,-28.53,153.15,345
60147,KILLABAKH,NSW,39.0,-31.73,152.40,-999
60161,COMBOYNE (PUBLIC SCHOOL),NSW,39.0,-31.61,152.47,617
94027,HASTINGS CHALET,TAS,39.0,-43.41,146.87,35
40093,GYMPIE,QLD,38.6,-26.18,152.64,65
85310,YARRAGON SOUTH,VIC,38.4,-38.27,146.09,413
91357,EDITH CREEK (BIRTHDAY CREEK),TAS,38.4,-40.98,145.09,50
58212,EVANS HEAD RAAF BOMBING RANGE AWS,NSW,38.2,-29.18,153.40,63
91198,MOUNT BARROW (SOUTH BARROW),TAS,38.2,-41.39,147.42,1313
33053,MOUNT JUKES,QLD,38.0,-21.00,148.94,30
40762,YARRAHAPPINI TM,QLD,38.0,-27.83,152.99,11
40094,HARRISVILLE MARY STREET,QLD,37.8,-27.81,152.67,58
98000,CITY OF MELBOURNE BAY,TAS,37.8,-40.01,144.11,18
40695,PALMWOODS,QLD,37.6,-26.71,152.93,40
40777,IMBIL ALERT,QLD,37.6,-26.46,152.68,76
40861,SUNSHINE COAST AIRPORT,QLD,37.6,-26.60,153.09,3
91153,BARRINGTON POST OFFICE,TAS,37.6,-41.34,146.28,264
85007,BALOOK,VIC,37.4,-38.43,146.54,585
40818,MT CROSBY TM,QLD,37.0,-27.54,152.80,0
40873,HARDING STREET ALERT,QLD,37.0,-27.64,152.79,-999
40904,RAILWAY BRIDGE ALERT,QLD,37.0,-25.28,152.51,10
40985,BELLBIRD PARK (PURSER RD) AL,QLD,37.0,-27.67,152.87,57
91365,SPRENT,TAS,36.8,-41.26,146.16,270
91364,BOAT HARBOUR,TAS,36.6,-40.93,145.60,184
97083,SCOTTS PEAK DAM,TAS,36.6,-43.04,146.27,408
60153,MOPPY LOOKOUT (BARRINGTON TOPS),NSW,36.4,-31.89,151.56,1340
96003,BUTLERS GORGE,TAS,36.4,-42.28,146.28,667
91355,BURNIE (PARK GROVE),TAS,36.2,-41.05,145.88,99
33263,BOUNDARY CREEK ALERT,QLD,36.0,-20.42,148.11,196
40811,KILKIVAN TM,QLD,36.0,-26.08,152.22,29
40907,HOWARD ALERT,QLD,36.0,-25.33,152.56,10
91332,RAILTON (DOWBIGGIN STREET),TAS,35.8,-41.35,146.42,75
83091,JAMIESON LICOLA RD,VIC,35.2,-37.30,146.15,340
58129,KUNGHUR (THE JUNCTION),NSW,35.0,-28.47,153.25,61
35295,BINGEGANG WEIR HW ALERT,QLD,34.6,-23.07,149.04,107
39071,MOURA POST OFFICE,QLD,34.6,-24.57,149.97,148
39068,MOUNT LARCOM POST OFFICE,QLD,34.4,-23.81,150.98,59
40224,ALDERLEY,QLD,34.4,-27.42,153.00,39
40969,GODWIN BEACH,QLD,34.4,-27.07,153.11,7
58216,BYRON BAY (CAPE BYRON AWS),NSW,34.4,-28.64,153.64,95
91291,SHEFFIELD SCHOOL FARM,TAS,34.4,-41.39,146.32,277
92051,PYENGANA (FOREST LODGE ROAD),TAS,34.2,-41.27,147.95,155
40004,AMBERLEY AMO,QLD,34.0,-27.63,152.71,24
40500,EMBREYS BRIDGE,QLD,34.0,-26.64,151.94,357
40778,ZACHARIAH TM,QLD,34.0,-26.36,152.63,90
40988,NAMBOUR DAFF - HILLSIDE,QLD,34.0,-26.64,152.94,53
56001,SAPPHIRE (ARGYLE),NSW,34.0,-29.72,151.36,795
85238,ERICA (PARKERS CORNER),VIC,34.0,-37.95,146.39,483
60168,PORT MACQUARIE AIRPORT AWS,NSW,33.8,-31.43,152.87,5
58207,BUSBYS FLAT,NSW,33.4,-29.04,152.81,105
91266,KIMBERLEY (MERSEY RIVER),TAS,33.2,-41.40,146.50,60
40458,CAPALABA WATER TREAT,QLD,33.0,-27.53,153.18,28
56245,BEN LOMOND (BEULAH),NSW,33.0,-29.96,151.61,1457
91107,WYNYARD AIRPORT,TAS,32.4,-41.00,145.73,12
83058,HALLS (BUCKLAND RIVER AT TWELVE MILE),VIC,32.2,-36.85,146.86,500
85309,MOE SOUTH,VIC,32.2,-38.22,146.25,365
40942,PALEN CREEK ALERT,QLD,32.0,-28.32,152.77,220
41090,DARR CREEK AL,QLD,32.0,-26.54,151.13,393
83010,EUROBIN,VIC,32.0,-36.63,146.86,266
96069,DERWENT BRIDGE,TAS,31.8,-42.13,146.22,727
40801,KANDANGA TM,QLD,31.6,-26.39,152.68,80
40868,MT JOSEPH TM,QLD,31.6,-25.74,152.24,120
42119,PALMERSTON,QLD,31.6,-27.54,149.41,279
83085,MOUNT HOTHAM,VIC,31.4,-36.98,147.13,1849
85063,MOUNT BEST (UPPER TOORA),VIC,31.4,-38.61,146.32,235
91109,YOLLA (SEA VIEW),TAS,31.2,-41.14,145.71,343
91305,TARGA (MOUNTAIN VIEWS),TAS,31.2,-41.31,147.38,410
35039,GILIGULGUL TM,QLD,31.0,-26.36,150.05,367
40247,LINDFIELD,QLD,31.0,-26.84,152.58,146
22835,PARNDANA (TURKEY LANE),SA,30.8,-35.73,137.12,201
95059,TIM SHEA (SUMMIT),TAS,30.6,-42.72,146.47,925
85280,MORWELL (LATROBE VALLEY AIRPORT),VIC,30.4,-38.21,146.47,56
40334,BIGGENDEN ALERT,QLD,30.0,-25.51,152.04,125
60096,CABBAGE TREE MOUNTAIN,NSW,30.0,-32.26,152.12,-999
91366,JACKEYS MARSH,TAS,30.0,-41.68,146.68,489
39303,CHILDERS SOUTH,QLD,29.8,-25.26,152.28,95
86104,SCORESBY RESEARCH INSTITUTE,VIC,29.8,-37.87,145.26,80
88154,GLENBURN (HIGHWOOD TBRG),VIC,29.8,-37.39,145.48,313
84147,BAIRNSDALE (MITCHELL RIVER @ ROSEHILL),VIC,29.4,-37.82,147.57,20
39258,WALLA ALERT-B,QLD,29.2,-25.14,151.98,15
41169,KERIMBILLA TM,QLD,29.2,-28.39,150.48,225
82163,CARBOOR UPPER,VIC,29.2,-36.64,146.55,298
85313,NILMA NORTH (WARRAGUL),VIC,29.2,-38.13,145.99,134
97092,STRAHAN (ANDREW STREET),TAS,29.2,-42.15,145.32,10
40833,HOME PARK TM,QLD,29.0,-25.77,152.53,5
40980,DECEPTION BAY ALERT,QLD,29.0,-27.18,153.02,4
59045,MELDRUM (COOLAWARRAH),NSW,29.0,-30.36,152.49,1230
86127,WONTHAGGI,VIC,29.0,-38.61,145.60,53
91338,MOUNT ARTHUR SUMMIT,TAS,29.0,-41.28,147.29,1180
39089,THANGOOL AIRPORT,QLD,28.4,-24.49,150.57,193
85296,MOUNT MOORNAPA,VIC,28.4,-37.75,147.14,480
40842,BRISBANE AERO,QLD,28.2,-27.39,153.13,5
40317,RANGE VIEW,QLD,28.0,-27.75,152.67,53
40836,ONE MILE BRIDGE ALERT,QLD,28.0,-27.63,152.75,0
58007,BYRON BAY (JACARANDA DRIVE),NSW,28.0,-28.64,153.59,3
84144,MOUNT NOWA NOWA,VIC,28.0,-37.69,148.09,350
91292,SMITHTON AERODROME,TAS,27.8,-40.83,145.08,8
57095,TABULAM (MUIRNE),NSW,27.6,-28.76,152.45,555
91219,SCOTTSDALE (WEST MINSTONE ROAD),TAS,27.6,-41.17,147.49,198
40889,OAKWOOD TM,QLD,27.4,-26.45,152.49,200
40958,REDCLIFFE,QLD,27.4,-27.22,153.09,13
55257,DURI (DUNGOWAN RD),NSW,27.4,-31.22,150.82,456
91267,MEANDER (MEANDER RIVER),TAS,27.4,-41.65,146.62,292
40965,CLONTARF,QLD,27.2,-27.24,153.09,29
85009,TRARALGON EPA,VIC,27.2,-38.20,146.53,-999
40902,MUSKET FLAT MT ALERT,QLD,27.0,-25.50,152.38,200
59007,KEMPSEY AIRPORT AWS,NSW,26.8,-31.07,152.77,13
85030,BOOLARRA SOUTH,VIC,26.8,-38.41,146.30,235
90197,MOUNT RICHMOND (BLACKS ROAD),VIC,26.8,-38.15,141.38,131
83000,ARCHERTON,VIC,26.6,-36.91,146.24,907
91348,PIPERS RIVER (BAY OF FIRES),TAS,26.6,-41.11,147.10,70
33119,MACKAY M.O,QLD,26.4,-21.12,149.22,30
71041,THREDBO VILLAGE,NSW,26.4,-36.50,148.30,1380
96033,LIAWENEE,TAS,26.4,-41.90,146.67,1057
33266,MOSS VALE ALERT,QLD,26.0,-20.24,148.03,138
40949,BOONAH ALERT,QLD,26.0,-28.00,152.69,110
41085,QUEEN MARY FALLS,QLD,26.0,-28.33,152.39,895
41509,TRAIGHLI,QLD,26.0,-27.67,150.35,297
60162,COOPLACURRIPA (HAWKINS RD),NSW,26.0,-31.59,151.83,-999
60164,YARROWITCH (RUSHBROOK),NSW,26.0,-31.35,152.01,1168
84150,LAKES ENTRANCE (EASTERN BEACH ROAD),VIC,25.9,-37.87,148.01,4
55136,WOOLBROOK (WOOLBROOK ROAD),NSW,25.8,-30.97,151.35,925
85270,MITCHELL RIVER @ GLENALADALE,VIC,25.8,-37.76,147.37,40
58194,DAIRY FLAT,NSW,25.4,-28.38,152.72,25
86068,VIEWBANK,VIC,25.4,-37.74,145.10,66
91290,GOLDEN VALLEY (BRODIES ROAD),TAS,25.2,-41.63,146.70,487
39044,RIVERSLEA TM,QLD,25.0,-23.57,149.95,32
40816,AMBERLEY (DNRM) TM,QLD,25.0,-27.67,152.70,18
40905,UPPER CHERWELL ALERT,QLD,25.0,-25.29,152.41,30
42112,MILES CONSTANCE STREET,QLD,25.0,-26.66,150.18,305
84045,LAKE TYERS,VIC,25.0,-37.85,148.06,21
84145,ORBOST,VIC,25.0,-37.69,148.47,63
85302,TAMBORITHA-MOROKA (SNOWY RANGE),VIC,24.8,-37.29,146.72,-999
40184,ROSEWOOD WALLOON RD,QLD,24.6,-27.63,152.59,63
18137,PORT LINCOLN (WESTMERE),SA,24.4,-34.83,135.70,90
85288,MOUNT TAMBORITHA,VIC,24.4,-37.47,146.69,1446
88119,ACHERON RIVER @ TAGGERTY,VIC,24.4,-37.32,145.72,-999
56243,GLEN INNES AIRPORT AWS,NSW,24.2,-29.68,151.69,1044
57020,URBENVILLE,NSW,24.2,-28.47,152.55,378
88023,LAKE EILDON,VIC,24.2,-37.23,145.91,230
40832,FOREST HOME TM,QLD,24.0,-28.20,152.77,110
40933,FOXLEY ALERT,QLD,24.0,-28.27,153.03,178
41490,BRIGALOW BRIDGE TM,QLD,24.0,-26.90,150.78,297
82105,WHITFIELD (KING RIVER AT CHESHUNT),VIC,24.0,-36.83,146.40,293
82158,EDI UPPER (BLACK RANGE TROUT FARM),VIC,23.8,-36.75,146.54,-999
97072,STRAHAN AERODROME,TAS,23.8,-42.16,145.29,21
60116,KINDEE BRIDGE (HASTINGS RIVER),NSW,23.6,-31.44,152.46,-999
84142,GELANTIPY,VIC,23.6,-37.22,148.26,755
85279,BAIRNSDALE AIRPORT,VIC,23.6,-37.88,147.57,49
90194,DARTMOOR,VIC,23.6,-37.92,141.26,51
48256,WEILMORINGLE (CARINGLE) COMPARISON,NSW,23.4,-29.35,146.81,126
60067,UPPER PAPPINBARRA (HILLCREST),NSW,23.4,-31.28,152.43,220
56238,ARMIDALE AIRPORT AWS,NSW,23.2,-30.53,151.62,1079
40903,PACIFIC HAVEN ALERT,QLD,23.0,-25.24,152.53,10
59128,MAJORS CREEK (MOPARRABAH (PARRABEL CREEK,NSW,23.0,-30.98,152.51,-999
82142,TOLMIE (MOUNT TABLETOP REPEATER),VIC,23.0,-36.95,146.22,915
84023,MARLO,VIC,23.0,-37.79,148.55,38
86213,ROSEBUD (COUNTRY CLUB),VIC,23.0,-38.38,144.90,20
85289,MURDERERS HILL,VIC,22.8,-37.85,146.56,720
90188,BENWERRIN,VIC,22.8,-38.48,143.91,-999
91351,GLENGARRY (GINNS ROAD),TAS,22.8,-41.38,146.82,217
91227,DELORAINE RAILWAY BRIDGE (MEANDER RIVER),TAS,22.6,-41.53,146.66,240
96002,BRONTE HEIGHTS,TAS,22.6,-42.14,146.49,710
9030,MUNDARING,WA,22.4,-31.90,116.16,300
40693,HIGHVALE,QLD,22.4,-27.38,152.82,98
83024,MOUNT BULLER,VIC,22.4,-37.15,146.44,1707
86297,MOUNT WAVERLEY (RIVERSDALE GOLF CLUB),VIC,22.4,-37.87,145.12,92
90171,PORTLAND AIRPORT,VIC,22.4,-38.31,141.47,81
33106,HAMILTON ISLAND AIRPORT,QLD,22.2,-20.37,148.95,59
85281,TRARALGON CREEK AT KOORNALLA,VIC,22.2,-38.32,146.53,90
85307,JEERALANG NORTH,VIC,22.2,-38.35,146.44,606
85308,THORPDALE PEAK,VIC,22.2,-38.31,146.21,360
14825,VICTORIA RIVER DOWNS,NT,22.0,-16.40,131.01,89
15511,CURTIN SPRINGS,NT,22.0,-25.31,131.76,490
39351,UPPER ULAM ROAD,QLD,22.0,-23.62,150.54,-999
40934,ROMANI ALERT,QLD,22.0,-27.85,152.91,39
85041,INVERLOCH,VIC,22.0,-38.61,145.71,50
91126,DEVONPORT AIRPORT,TAS,22.0,-41.17,146.43,8
85151,YARRAM AIRPORT,VIC,21.8,-38.56,146.75,18
85168,BRIAGOLONG,VIC,21.8,-37.83,147.08,68
22823,CAPE BORDA,SA,21.6,-35.75,136.60,158
72161,CABRAMURRA SMHEA AWS,NSW,21.6,-35.94,148.38,1482
35081,WOLEEBEE NEVASA,QLD,21.5,-26.29,149.83,273
39002,BAJOOL POST OFFICE,QLD,21.4,-23.65,150.65,16
40082,UNIVERSITY OF QUEENSLAND GATTON,QLD,21.4,-27.54,152.34,89
40106,KENILWORTH TOWNSHIP,QLD,21.4,-26.60,152.73,107
94249,CRABTREE (STONEY CREEK FARM),TAS,21.4,-42.93,147.04,249
92045,LARAPUNA (EDDYSTONE POINT),TAS,21.2,-40.99,148.35,20
40943,DIECKMANS BRIDGE ALERT,QLD,21.0,-28.25,152.89,105
40948,KNAPPS PEAK ALERT,QLD,21.0,-28.15,152.74,278
60065,WOOTTON,NSW,21.0,-32.29,152.30,-999
61413,CAREYS PEAK (BARRINGTON TOPS),NSW,21.0,-32.05,151.47,1430
82167,GRETA WEST,VIC,21.0,-36.53,146.22,174
83083,EDI UPPER,VIC,21.0,-36.74,146.47,355
86373,RHYLL,VIC,21.0,-38.46,145.31,13
55325,TAMWORTH AIRPORT AWS,NSW,20.8,-31.07,150.84,395
85072,EAST SALE,VIC,20.8,-38.12,147.13,5
87135,BARWON HEADS GOLF CLUB,VIC,20.6,-38.28,144.48,8
90183,HAINES JUNCTION (MOUNT SABINE),VIC,20.6,-38.63,143.73,583
90185,LORNE (MOUNT COWLEY),VIC,20.6,-38.55,143.86,657
40258,YARRAMAN POST OFFICE,QLD,20.4,-26.84,151.98,445
75163,HILLSTON ( ALDINGA),NSW,20.4,-33.35,145.87,135
84003,BRUTHEN (POST OFFICE),VIC,20.4,-37.71,147.83,22
85099,POUND CREEK,VIC,20.4,-38.63,145.81,3
98017,KING ISLAND AIRPORT,TAS,20.4,-39.88,143.89,35
91331,KENNAOOK/CAPE GRIM,TAS,20.2,-40.68,144.69,86
29129,DEVONCOURT STATION,QLD,20.0,-21.22,140.23,282
40503,TALLEGALLA ALERT,QLD,20.0,-27.61,152.58,60
59032,TAYLORS ARM,NSW,20.0,-30.78,152.70,80
61415,DUNGOG (UPPER MYALL CREEK),NSW,20.0,-32.35,151.64,217
83095,ANGLERS REST (BUNDARRAH VALLEY),VIC,20.0,-37.00,147.41,790
39070,MT PERRY THE PINES,QLD,19.9,-25.17,151.64,165
26021,MOUNT GAMBIER AERO,SA,19.8,-37.75,140.77,63
26067,MOUNT SCHANK (JETHIA),SA,19.8,-37.96,140.77,21
82151,SEVEN CREEKS AT STRATHBOGIE,VIC,19.8,-36.86,145.73,470
85096,WILSONS PROMONTORY LIGHTHOUSE,VIC,19.8,-39.13,146.42,95
85301,CORNER INLET (YANAKIE),VIC,19.8,-38.81,146.19,13
94214,MOUNT DROMEDARY,TAS,19.8,-42.70,147.13,462
9534,DONNYBROOK,WA,19.6,-33.57,115.82,63
34035,MORANBAH AIRPORT,QLD,19.6,-22.06,148.08,232
82148,TOO ROUR (MOROKO PARK),VIC,19.6,-36.83,145.85,590
88164,EILDON FIRE TOWER,VIC,19.6,-37.21,145.84,637
89002,BALLARAT AERODROME,VIC,19.4,-37.51,143.79,435
90001,APOLLO BAY,VIC,19.4,-38.76,143.67,10
22843,PARNDANA CFS AWS,SA,19.2,-35.79,137.25,165
82146,GOORAM (MORELLA),VIC,19.2,-36.93,145.58,320
84152,MOUNT DELEGATE,VIC,19.2,-37.11,148.90,-999
85314,EAST SALE AIRPORT,VIC,19.2,-38.10,147.14,5
86111,SPRINGVALE NECROPOLIS,VIC,19.1,-37.94,145.18,73
9240,BICKLEY,WA,19.0,-32.01,116.14,384
33269,ROMA PEAK ALERT,QLD,19.0,-20.31,148.22,148
39339,NEARUM RD ALERT,QLD,19.0,-25.11,151.85,300
40827,BAN BAN TM,QLD,19.0,-25.71,151.81,122
54121,BUKKULLA (RFS),NSW,19.0,-29.50,151.13,581
56161,GUYRA (GOWAN BRAE),NSW,19.0,-30.16,151.88,1325
60163,YARRAS MOUNTAIN,NSW,19.0,-31.46,152.32,679
22841,KINGSCOTE AERO,SA,18.8,-35.71,137.52,6
82154,SEVEN CREEKS AT D/S POLLY MCQUINNS WEIR,VIC,18.8,-36.89,145.68,440
86374,KINGLAKE WEST,VIC,18.8,-37.47,145.26,490
92111,UPPER ESK (SOUTH ESK RIVER),TAS,18.8,-41.43,147.72,362
9968,SHANNON,WA,18.6,-34.57,116.34,210
70349,MOUNT GININI AWS,NSW,18.6,-35.53,148.77,1760
82042,STRATHBOGIE,VIC,18.6,-36.85,145.73,501
95079,LACHLAN (WILLIAMS ROAD),TAS,18.6,-42.85,147.03,168
60117,MOUNT GEORGE (MANNING RIVER),NSW,18.5,-31.88,152.15,15
18115,NEPTUNE ISLAND,SA,18.4,-35.34,136.12,32
56037,ARMIDALE (TREE GROUP NURSERY),NSW,18.4,-30.52,151.67,987
82155,HOLLAND CK AT WRIGHTLEY,VIC,18.4,-36.82,146.13,430
40924,WOODFORD STANMORE,QLD,18.2,-26.90,152.77,165
82018,UPLANDS (GIBBO RIVER PARK),VIC,18.2,-36.77,147.70,610
82147,MERTON (ENDERLEE),VIC,18.2,-36.92,145.68,495
90175,PORT FAIRY AWS,VIC,18.2,-38.39,142.23,10
22807,KINGSCOTE,SA,18.1,-35.66,137.64,18
33008,BYFIELD CHILDS ROAD,QLD,18.0,-22.85,150.65,40
40830,BELLBIRD CREEK TM,QLD,18.0,-26.63,152.70,95
59131,MILLBANK,NSW,18.0,-30.88,152.61,70
59151,COFFS HARBOUR AIRPORT,NSW,18.0,-30.32,153.12,4
60013,FORSTER - TUNCURRY MARINE RESCUE,NSW,18.0,-32.18,152.51,4
85293,CAPE LIPTRAP (ILLAWONG),VIC,18.0,-38.90,145.94,95
86079,MORNINGTON,VIC,18.0,-38.24,145.07,60
91271,NUNAMARA OFFTAKE (ST PATRICKS RIVER),TAS,18.0,-41.40,147.30,351
94155,TASMAN ISLAND,TAS,18.0,-43.24,148.00,240
9066,GIDGEGANNUP,WA,17.8,-31.79,116.20,290
22817,FLINDERS CHASE (ROCKY RIVER),SA,17.8,-35.95,136.74,61
23875,PARAWA (SECOND VALLEY FOREST AWS),SA,17.8,-35.57,138.29,341
39332,LLOYONA,QLD,17.8,-24.41,149.84,108
42102,RIPPLE DOWNS AL,QLD,17.8,-27.94,150.14,248
56229,GUYRA HOSPITAL,NSW,17.8,-30.21,151.68,1329
82153,KITHBROOK (BALQUHAIN),VIC,17.8,-36.82,145.71,580
83019,MANSFIELD (POST OFFICE),VIC,17.8,-37.05,146.09,316
86088,OAKLEIGH (METROPOLITAN GOLF CLUB),VIC,17.8,-37.91,145.09,81
96081,POATINA,TAS,17.8,-41.80,146.96,312
60021,KRAMBACH (FIREFLY RD),NSW,17.6,-32.06,152.26,65
84015,ENSAY,VIC,17.6,-37.37,147.84,230
88059,TRENTHAM,VIC,17.6,-37.37,144.31,695
59124,NYMBOIDA (NYMBOIDA RIVER),NSW,17.5,-29.98,152.72,180
35040,WESTGROVE TM,QLD,17.4,-25.58,148.48,460
85303,REEVES KNOB,VIC,17.4,-37.53,147.01,-999
90070,PORTLAND,VIC,17.4,-38.35,141.59,55
97080,LOW ROCKY POINT,TAS,17.4,-42.98,145.50,34
3108,YAMPI SOUND (DEFENCE),WA,17.2,-16.77,123.98,41
39000,ABERCORN,QLD,17.2,-25.13,151.13,200
40867,KALBAR TM,QLD,17.2,-27.94,152.62,80
41348,WYAGA TM,QLD,17.2,-28.17,150.64,267
82170,BENALLA AIRPORT,VIC,17.2,-36.55,146.00,171
94041,MAATSUYKER ISLAND LIGHTHOUSE,TAS,17.2,-43.66,146.27,147
94191,HARTZ MOUNTAIN (KEOGHS PIMPLE),TAS,17.2,-43.20,146.77,831
85297,MAFFRA,VIC,17.1,-37.97,146.99,35
33302,MIRANI WEIR TW ALERT,QLD,17.0,-21.18,148.83,34
33303,MACKAY ALERT,QLD,17.0,-21.14,149.19,11
39104,MONTO TOWNSHIP,QLD,17.0,-24.86,151.12,239
39319,ABERCORN TM,QLD,17.0,-25.13,151.13,184
40876,WILSONS PEAK ALERT,QLD,17.0,-28.24,152.49,852
42025,HORSE CREEK AL,QLD,17.0,-26.55,150.63,350
43051,PINE HILLS TM,QLD,17.0,-26.26,149.24,350
53108,TERRY HIE HIE,NSW,17.0,-29.79,150.15,250
60095,BUNGWAHL,NSW,17.0,-32.38,152.38,-999
82140,LIMA EAST (CHARNWOOD),VIC,17.0,-36.85,145.94,340
87017,BLACKWOOD,VIC,17.0,-37.47,144.31,547
88067,YEA,VIC,17.0,-37.22,145.43,196
94261,FRANKLIN (SOUTH),TAS,17.0,-43.12,146.99,33
22049,STENHOUSE BAY,SA,16.8,-35.28,136.94,42
23891,PICCADILLY (WOODHOUSE),SA,16.8,-34.98,138.74,441
58099,WHIPORIE POST OFFICE,NSW,16.8,-29.28,152.99,50
60118,ROCKS CROSSING (NOWENDOC RIVER),NSW,16.8,-31.78,152.08,70
92123,SWAN ISLAND,TAS,16.8,-40.73,148.13,15
91236,WESTBURY (BIRRALEE ROAD),TAS,16.7,-41.51,146.83,186
83090,OMEO,VIC,16.6,-37.10,147.60,690
94198,CAPE BRUNY (CAPE BRUNY),TAS,16.6,-43.49,147.14,60
3098,MOUNT HOUSE AIRSTRIP,WA,16.4,-17.05,125.71,270
23867,ASHTON,SA,16.4,-34.93,138.75,496
23873,CRAFERS WEST,SA,16.4,-34.99,138.69,570
39067,MOONMERA,QLD,16.4,-23.58,150.40,137
43097,TEELBA,QLD,16.4,-27.76,149.40,237
84097,BULLUMWAAL,VIC,16.4,-37.68,147.55,-999
85034,GLENMAGGIE WEIR,VIC,16.4,-37.91,146.80,91
91263,CORRA LINN (NORTH ESK RIVER),TAS,16.4,-41.49,147.23,41
18188,COFFIN BAY,SA,16.2,-34.63,135.47,12
85276,AVON RIVER @ THE CHANNEL,VIC,16.2,-37.80,146.88,-999
86377,UPPER PLENTY,VIC,16.2,-37.42,145.08,325
94274,FERN TREE (WESTRINGA ROAD),TAS,16.2,-42.93,147.25,401
9015,KARRAGULLEN NORTH,WA,16.0,-32.09,116.13,330
33304,GARGETT ALERT,QLD,16.0,-21.18,148.74,53
41219,REDBANK,QLD,16.0,-27.99,151.55,414
56242,INVERELL (RAGLAN ST),NSW,16.0,-29.78,151.11,582
91072,LAUNCESTON (KINGS MEADOWS),TAS,16.0,-41.47,147.16,67
91293,LOW HEAD,TAS,16.0,-41.05,146.79,3
18094,WIRRULLA,SA,15.8,-32.40,134.53,79
18230,COFFIN BAY (POINT AVOID),SA,15.8,-34.68,135.34,35
40394,MOUNT BARNEY,QLD,15.8,-28.23,152.78,227
41359,OAKEY AERO,QLD,15.8,-27.40,151.74,406
56018,INVERELL RESEARCH CENTRE,NSW,15.8,-29.78,151.08,664
57005,DRAKE (VILLAGE RESOURCE CENTRE),NSW,15.8,-28.93,152.38,490
91303,WESTWOOD BRIDGE (MEANDER RIVER),TAS,15.8,-41.52,147.03,137
23846,BELAIR,SA,15.6,-35.00,138.66,480
39349,WESTWOOD TM,QLD,15.6,-23.63,150.15,160
82084,BOHO (HONEYSUCKLE CK U/S VIOLET TOWN),VIC,15.6,-36.71,145.76,330
82145,GOORAM (HILLSIDE),VIC,15.6,-36.88,145.58,255
85166,STRATFORD,VIC,15.6,-37.96,147.08,25
94213,FORTESCUE BAY,TAS,15.6,-43.15,147.96,25
94220,GROVE (RESEARCH STATION),TAS,15.6,-42.98,147.08,65
9923,WORSLEY DOWNS,WA,15.4,-33.32,115.99,240
23750,URAIDLA,SA,15.4,-34.96,138.74,487
55309,DUNGOWAN (GLENDOWER MOUNTAIN (LECONFIELD,NSW,15.4,-31.15,151.23,1050
82116,MYRRHEE (BOGGY CK AT ANGLESIDE),VIC,15.4,-36.61,146.36,-999
96083,THE DEN,TAS,15.4,-41.98,147.05,526
18019,COULTA,SA,15.3,-34.39,135.47,75
18054,PORT KENNY (MOUNT COOPER),SA,15.2,-33.03,134.70,150
23842,MOUNT LOFTY,SA,15.2,-34.98,138.71,685
41545,DUNMORE EXCHANGE TM,QLD,15.2,-27.65,150.91,350
60137,BRETTI-MACKAY (BARNARD RIVER),NSW,15.2,-31.77,151.89,120
82128,HURDLE CK AT BOBINAWARRAH,VIC,15.2,-36.51,146.45,-999
94179,JUDBURY (HUON RIVER),TAS,15.2,-43.00,146.93,21
99014,MEMANA (BABEL FARM),TAS,15.2,-40.02,148.18,12
14913,ELIZABETH DOWNS,NT,15.0,-13.74,130.49,36
18079,STREAKY BAY,SA,15.0,-32.81,134.20,45
33277,MIRANI WEIR TW TM,QLD,15.0,-21.18,148.83,34
33312,HEDLOW AIRFIELD TM,QLD,15.0,-23.22,150.61,30
33329,OORALEA RACECOURSE (MACKAY TURF CLUB),QLD,15.0,-21.17,149.15,10
35182,KINNOUL,QLD,15.0,-25.68,149.63,200
39036,EIDSVOLD POST OFFICE,QLD,15.0,-25.37,151.12,197
39338,OLD RANGE RD ALERT,QLD,15.0,-25.36,152.10,50
40822,GREGOR CREEK TM,QLD,15.0,-27.00,152.40,83
41092,BALLON AL,QLD,15.0,-26.45,150.89,335
56199,WYLIE CREEK (BURRENBAR),NSW,15.0,-28.56,152.12,777
59139,NANA GLEN (COWLING CLOSE),NSW,15.0,-30.10,153.00,70
51162,WALGETT (BREWON AWS),NSW,14.8,-30.24,147.53,130
60155,WAUKIVORY,NSW,14.8,-32.13,152.06,158
61431,MURRURUNDI (HAYDON STREET),NSW,14.8,-31.77,150.84,467
82076,DARTMOUTH RESERVOIR,VIC,14.8,-36.54,147.50,370
82165,STUMP HILL (BARJARG),VIC,14.8,-36.95,146.01,312
86282,MELBOURNE AIRPORT,VIC,14.8,-37.67,144.83,113
86361,CERBERUS,VIC,14.8,-38.36,145.18,13
88166,PUCKAPUNYAL WEST (DEFENCE),VIC,14.8,-37.02,144.85,293
23817,ALDGATE,SA,14.6,-35.02,138.74,442
41507,NEW KILDONAN TM,QLD,14.6,-28.67,150.45,230
55335,NUNDLE (MALONGA),NSW,14.6,-31.53,151.18,1200
90186,WARRNAMBOOL AIRPORT NDB,VIC,14.6,-38.29,142.45,71
97000,CAPE SORELL,TAS,14.6,-42.20,145.17,19
88110,CASTLEMAINE PRISON,VIC,14.5,-37.08,144.24,330
1026,DRYSDALE RIVER STATION,WA,14.4,-15.70,126.38,370
9023,JARRAHDALE,WA,14.4,-32.33,116.08,240
40891,BROOWEENA TM,QLD,14.4,-25.60,152.26,164
53018,CROPPA CREEK (KRUI PLAINS),NSW,14.4,-28.99,150.02,222
55046,PINE RIDGE (BILLABONG),NSW,14.4,-31.53,150.44,340
56239,WILSONS DOWNFALL,NSW,14.4,-28.70,152.10,970
84084,MALLACOOTA,VIC,14.4,-37.60,149.73,22
88010,WILLOWMAVIN (AVALON STATION),VIC,14.4,-37.25,144.86,381
94175,LUCASTON (BAKERS CREEK ROAD),TAS,14.4,-42.97,147.04,127
23704,BELAIR (STATE FLORA NURSERY),SA,14.2,-35.01,138.65,305
79109,PATYAH (BOOROOPKI COMPARISON),VIC,14.2,-36.81,141.26,139
92120,ST HELENS AERODROME,TAS,14.2,-41.34,148.28,48
18063,PENONG,SA,14.0,-31.93,133.01,16
18099,YEELANNA,SA,14.0,-34.13,135.73,95
33294,YEPPOON THE ESPLANADE,QLD,14.0,-23.14,150.75,6
40020,BLACKBUTT STATE SCHOOL,QLD,14.0,-26.89,152.10,445
40319,ROCKY POINT SUGAR MILL,QLD,14.0,-27.73,153.33,3
40534,WUNBURRA,QLD,14.0,-28.16,153.26,566
41514,LEYBURN TM,QLD,14.0,-28.03,151.58,-999
42116,ARDEN DOWNS TM,QLD,14.0,-28.23,149.56,230
63293,OBERON (JENOLAN CAVES ROAD),NSW,14.0,-33.74,149.88,1190
39242,BROADMEADOWS,QLD,13.8,-23.40,150.62,15
41053,JONDARYAN POST OFFICE,QLD,13.8,-27.37,151.59,390
58161,GRAFTON AIRPORT AWS,NSW,13.8,-29.76,153.03,25
82138,WANGARATTA AERO,VIC,13.8,-36.42,146.31,153
82162,ROSEWHITE FLD,VIC,13.8,-36.58,146.82,253
85033,GIFFARD,VIC,13.8,-38.42,147.09,12
88064,MOLLISONS CK AT PYALONG,VIC,13.8,-37.12,144.86,247
89003,BALMORAL (POST OFFICE),VIC,13.8,-37.25,141.84,180
95003,BUSHY PARK (BUSHY PARK ESTATES),TAS,13.8,-42.71,146.90,27
40104,KALBAR STATE SCHOOL,QLD,13.7,-27.94,152.62,100
7103,NEDS CREEK,WA,13.6,-25.48,119.65,600
23890,BELAIR (ST JOHNS),SA,13.6,-35.00,138.62,316
29181,LAKE JULIUS AWS,QLD,13.6,-20.12,139.73,237
33313,THE GLEN TM,QLD,13.6,-22.83,150.34,60
40677,MAROON DAM,QLD,13.6,-28.18,152.66,231
84140,NICHOLSON WINERY,VIC,13.6,-37.80,147.76,42
90060,NULLAWARRE,VIC,13.6,-38.47,142.75,55
9271,BUNGENDORE,WA,13.4,-32.19,116.06,200
60036,WINGHAM (LANARK CLOSE),NSW,13.4,-31.86,152.34,66
82029,MILAWA BROWN BROS,VIC,13.4,-36.46,146.43,158
91260,STRATHBRIDGE (MEANDER RIVER),TAS,13.4,-41.49,146.90,160
94071,EAGLEHAWK NECK (JETTY ROAD),TAS,13.4,-43.02,147.91,12
86020,CHELTENHAM KINGSTON CENTRE,VIC,13.3,-37.96,145.08,39
29008,CLONCURRY MCILLWRAITH ST,QLD,13.2,-20.71,140.52,196
41162,BYBERA TM,QLD,13.2,-28.27,150.81,290
79011,EDENHOPE (ELIZABETH ST),VIC,13.2,-37.03,141.28,159
82149,EUROA (CASTLE CK AT TELFORD BRIDGE),VIC,13.2,-36.79,145.57,190
86338,MELBOURNE (OLYMPIC PARK),VIC,13.2,-37.83,144.98,8
87184,BREAKWATER (GEELONG RACECOURSE),VIC,13.2,-38.17,144.38,13
14801,HUMBERT RIVER,NT,13.0,-16.48,130.62,105
18195,MINNIPA PIRSA,SA,13.0,-32.84,135.15,165
39341,BYRNESTOWN ALERT,QLD,13.0,-25.52,151.76,120
41537,KILLARNEY ALERT,QLD,13.0,-28.34,152.29,507
41551,BELGRAE PARK ALERT,QLD,13.0,-26.97,151.48,480
57091,URALLA (BLUE NOBBY),NSW,13.0,-30.72,151.85,1067
60099,CRAWFORD RIVER (CRAWFORD),NSW,13.0,-32.44,152.16,-999
63043,KURRAJONG HEIGHTS (BELLS LINE OF ROAD),NSW,13.0,-33.53,150.63,460
72043,TUMBARUMBA POST OFFICE,NSW,13.0,-35.78,148.01,645
82143,SHEANS CREEK (HERONSLEA),VIC,13.0,-36.79,145.66,220
90015,CAPE OTWAY LIGHTHOUSE,VIC,13.0,-38.86,143.51,80
7179,TANGADEE,WA,12.8,-24.41,118.94,550
10026,GOODLANDS,WA,12.8,-30.06,117.14,310
23801,LENSWOOD,SA,12.8,-34.95,138.81,480
40763,WIVENHOE DAM,QLD,12.8,-27.40,152.61,73
43091,ROMA AIRPORT,QLD,12.8,-26.55,148.77,307
61282,DORA CREEK (DORA ST),NSW,12.8,-33.09,151.51,1
72169,TUMBARUMBA (WONDALMA),NSW,12.8,-35.71,148.00,675
89019,MIRRANATWA (BOWACKA),VIC,12.8,-37.40,142.38,248
58068,LAWRENCE ROAD (PRINGLES WAY),NSW,12.6,-29.41,153.02,110
60042,CRAVEN (LONGVIEW),NSW,12.6,-32.15,151.95,130
38035,TRINIDAD,QLD,12.5,-25.59,143.89,255
1024,ELLENBRAE,WA,12.4,-15.96,127.06,300
9113,ROLEYSTONE,WA,12.4,-32.11,116.08,250
18069,ELLISTON,SA,12.4,-33.65,134.89,7
82144,KELVIN VIEW (WATERHOUSE RESERVOIR),VIC,12.4,-36.82,145.64,300
2022,MOUNT WINIFRED,WA,12.2,-18.02,126.30,180
3052,MOUNT HART STATION,WA,12.2,-16.82,124.92,190
23710,CLARENDON,SA,12.2,-35.11,138.62,267
40912,FRANKLYN VALE ALERT,QLD,12.2,-27.76,152.47,160
41152,LANGLEY TM,QLD,12.2,-27.98,150.92,360
88001,ALEXANDRA (POST OFFICE),VIC,12.2,-37.19,145.71,221
91326,DEDDINGTON (NILE RIVER),TAS,12.2,-41.60,147.41,240
94231,LONGLEY (RIVER BEND ROAD),TAS,12.2,-42.96,147.20,237
9805,WALPOLE FORESTRY,WA,12.1,-34.98,116.73,15
94263,ABELS BAY (SANDREEF ROAD),TAS,12.1,-43.23,147.10,30
23865,LENSWOOD (STRINGYBARK),SA,12.0,-34.89,138.81,547
35068,WADDY BRAE TM,QLD,12.0,-25.61,148.94,470
39326,GLADSTONE AIRPORT,QLD,12.0,-23.87,151.22,17
41473,PRATTEN CONDAMINE RIVER,QLD,12.0,-28.10,151.81,417
41493,THE DEEP CROSSING,QLD,12.0,-27.49,150.46,308
59054,GLENREAGH (CORAMBA STREET),NSW,12.0,-30.05,152.98,67
61350,UPPER CHICHESTER (SIMMONDS),NSW,12.0,-32.17,151.59,265
86077,MOORABBIN AIRPORT,VIC,12.0,-37.98,145.10,12
88109,MANGALORE AIRPORT,VIC,12.0,-36.89,145.19,141
92114,FRIENDLY BEACHES,TAS,12.0,-42.00,148.28,55
94125,MARGATE (SUNNYSIDE),TAS,12.0,-43.02,147.25,24
94237,MOUNTAIN RIVER,TAS,12.0,-42.94,147.14,170
9739,TELINA DOWNS,WA,11.8,-33.68,122.33,170
18023,CUMMINS,SA,11.8,-34.26,135.73,65
18217,CUMMINS AERO,SA,11.8,-34.25,135.71,60
22046,EDITHBURGH,SA,11.8,-35.11,137.74,6
23803,ASHTON CO-OP,SA,11.8,-34.94,138.73,540
23882,LOBETHAL (MAIDMENT ROAD),SA,11.8,-34.87,138.91,497
25557,KEITH (MUNKORA),SA,11.8,-36.11,140.33,27
25560,BORDERTOWN (INDUSTRIAL ESTATE),SA,11.8,-36.31,140.74,85
79071,APSLEY (POST OFFICE),VIC,11.8,-36.97,141.08,111
87175,NEWHAM (COBAW),VIC,11.8,-37.27,144.60,530
91237,LAUNCESTON (TI TREE BEND),TAS,11.8,-41.42,147.12,5
91311,LAUNCESTON AIRPORT,TAS,11.8,-41.55,147.22,167
91375,CRESSY (BRUMBYS CREEK),TAS,11.8,-41.71,147.08,152
94252,SOUTH HOBART (HILLBOROUGH ROAD),TAS,11.8,-42.90,147.30,160
18046,LOCK,SA,11.6,-33.57,135.76,147
18083,WUDINNA AERO,SA,11.6,-33.04,135.45,86
23799,PROSPECT HILL,SA,11.6,-35.22,138.73,360
39059,LADY ELLIOT ISLAND,QLD,11.6,-24.11,152.72,4
43015,INJUNE POST OFFICE,QLD,11.6,-25.84,148.57,390
43054,INJUNE TM,QLD,11.6,-25.84,148.57,390
70350,GINNINDERRA (CHARNWOOD (ACT)),NSW,11.6,-35.21,149.01,-999
88061,WOODEND,VIC,11.6,-37.36,144.54,560
200839,LORD HOWE ISLAND AERO,NSW,11.6,-31.54,159.08,5
61096,PATERSON POST OFFICE,NSW,11.5,-32.60,151.62,21
86232,MELBOURNE BOTANICAL GARDENS,VIC,11.5,-37.83,144.98,29
18171,MOUNT HOPE (FAIRVIEW),SA,11.4,-34.14,135.33,60
33077,PACIFIC HEIGHTS,QLD,11.4,-23.10,150.73,51
42016,HANNAFORD POST OFFICE,QLD,11.4,-27.34,150.06,283
57014,GLEN ELGIN (GLENBROOK),NSW,11.4,-29.56,152.14,895
73007,BURRINJUCK DAM,NSW,11.4,-35.00,148.60,390
88060,KINGLAKE WEST (WALLABY CREEK),VIC,11.4,-37.45,145.21,488
88126,GOULBURN RIVER @ SEYMOUR,VIC,11.4,-37.02,145.11,140
90184,CAPE NELSON LIGHTHOUSE,VIC,11.4,-38.43,141.54,45
95048,OUSE FIRE STATION,TAS,11.4,-42.48,146.71,90
95081,NEW NORFOLK (WEST),TAS,11.4,-42.78,147.03,10
2067,KUNUNURRA CHECKPOINT,WA,11.2,-15.98,129.00,80
9277,LAKE CHITTERING,WA,11.2,-31.43,116.09,130
9871,WINDY HARBOUR,WA,11.2,-34.84,116.03,5
9936,HUNTLY,WA,11.2,-32.62,116.06,320
26109,LAKE GEORGE (MAHARISHI VEDIC COLLEGE),SA,11.2,-37.38,139.95,5
33247,PROSERPINE AIRPORT,QLD,11.2,-20.49,148.56,20
57123,NEWTON BOYD (ABBEY GREEN),NSW,11.2,-29.76,152.21,325
87162,GNARWARRE (BARWON RIVER AT POLLOCKSFORD),VIC,11.2,-38.14,144.19,40
93044,LLEWELLYN (SOUTH ESK RIVER),TAS,11.2,-41.82,147.57,180
35282,TAROOM TM,QLD,11.0,-25.64,149.79,181
40026,MUNGAR GAYNDAH ST,QLD,11.0,-25.60,152.59,40
55336,NUNDLE (HEAD OF THE PEEL),NSW,11.0,-31.60,151.14,-999
61419,MOUNT PALMER,NSW,11.0,-31.83,150.35,1050
74272,KAPOOKA (DEFENCE),NSW,11.0,-35.13,147.25,187
79017,GOROKE (POST OFFICE),VIC,11.0,-36.72,141.47,162
82090,DEDERANG,VIC,11.0,-36.48,147.03,261
84128,WEERAGUA (CANN RIVER (EAST BRANCH) AT CH,VIC,11.0,-37.36,149.21,240
88123,KYNETON,VIC,11.0,-37.25,144.43,525
88162,WALLAN (KILMORE GAP),VIC,11.0,-37.38,144.97,528
91325,HUMMOCKY HILLS,TAS,11.0,-41.73,147.24,477
300004,MACQUARIE ISLAND,ANT,11.0,-54.50,158.94,6
1025,DOONGAN,WA,10.8,-15.38,126.31,385
23734,MOUNT BOLD RESERVOIR,SA,10.8,-35.12,138.68,251
51164,GIRILAMBONE (OKEH) AWS,NSW,10.8,-31.08,146.93,178
60015,GLOUCESTER POST OFFICE,NSW,10.8,-32.01,151.96,105
79099,EDENHOPE AIRPORT,VIC,10.8,-37.02,141.27,155
88015,CLUNES,VIC,10.8,-37.30,143.78,332
89084,WARRAMBINE CK AT WARRAMBINE,VIC,10.8,-37.93,143.87,180
109501,MOUNT WILLIAM,WA,10.8,-32.94,116.02,484
9111,KARNET,WA,10.6,-32.44,116.08,286
9260,MOUNT SOLUS,WA,10.6,-32.47,116.21,574
9281,MILLENDON (SWAN VALLEY),WA,10.6,-31.81,116.02,16
9579,OAKE MARSH FARM,WA,10.6,-33.76,122.07,60
23905,URAIDLA (SUTTON CREEK),SA,10.6,-34.97,138.74,483
39186,BINGERA SUGAR MILL,QLD,10.6,-24.93,152.20,60
41529,TOOWOOMBA AIRPORT,QLD,10.6,-27.54,151.91,641
56006,BUNDARRA POST OFFICE,NSW,10.6,-30.17,151.08,654
61024,GRESFORD POST OFFICE,NSW,10.6,-32.43,151.54,85
70328,BOMBALA AWS,NSW,10.6,-37.00,149.23,761
83032,WHITLANDS (BURDER\'S LANE),VIC,10.6,-36.85,146.32,816
84126,SNOWY RIVER AT MCKILLOPS BRIDGE,VIC,10.6,-37.08,148.41,-999
86383,COLDSTREAM,VIC,10.6,-37.72,145.41,83
89045,BUANGOR (BIRANGA),VIC,10.6,-37.41,143.06,395
3099,LEOPOLD DOWNS TBRG,WA,10.4,-17.75,125.38,220
9182,MAIDA VALE,WA,10.4,-31.97,116.02,100
9998,NORTH WALPOLE,WA,10.4,-34.95,116.72,73
23721,HAPPY VALLEY RESERVOIR,SA,10.4,-35.06,138.57,174
26091,COONAWARRA,SA,10.4,-37.29,140.83,57
35242,BUNGABAN TM,QLD,10.4,-25.90,150.13,260
58012,YAMBA PILOT STATION,NSW,10.4,-29.43,153.36,27
61346,HUNTER SPRINGS (WONDECLA),NSW,10.4,-31.86,151.44,1235
86038,ESSENDON AIRPORT,VIC,10.4,-37.73,144.91,78
89085,ARARAT PRISON,VIC,10.3,-37.28,142.98,295
9172,JANDAKOT AERO,WA,10.2,-32.10,115.88,30
18219,PUNTABIE (MUDABIE),SA,10.2,-32.18,134.08,52
48255,LIGHTNING RIDGE AIRPORT,NSW,10.2,-29.45,147.98,164
61250,PATERSON (TOCAL AWS),NSW,10.2,-32.63,151.59,30
86117,TOOROURRONG RESERVOIR (TOOROURRONG),VIC,10.2,-37.48,145.15,219
88053,SEYMOUR SHIRE DEPOT,VIC,10.2,-37.03,145.15,145
90063,PENSHURST (POST OFFICE),VIC,10.2,-37.88,142.29,233
200838,HOGAN ISLAND,TAS,10.2,-39.22,146.98,116
2053,LANSDOWNE,WA,10.0,-17.61,126.74,400
9982,HENTY BROOK,WA,10.0,-33.39,115.85,240
26007,FRANCES,SA,10.0,-36.71,140.96,103
33299,SARICH\'S ALERT,QLD,10.0,-21.27,148.82,48
35187,VALERIA ALERT,QLD,10.0,-23.19,147.89,207
35251,CRAIGMORE AL,QLD,10.0,-23.88,147.76,231
40770,ORMISTON COLLEGE,QLD,10.0,-27.52,153.25,37
40829,HELIDON TM,QLD,10.0,-27.54,152.11,124
41096,MT KYNOCH,QLD,10.0,-27.51,151.95,739
41516,ALLORA TM,QLD,10.0,-28.03,152.02,471
48031,COLLARENEBRI (ALBERT ST),NSW,10.0,-29.54,148.58,145
55321,MULLA CROSSING (COCKBURN RIVER),NSW,10.0,-31.06,151.13,-999
56038,WYLIE CREEK (ALOOMBA),NSW,10.0,-28.55,152.16,675
60104,NOWENDOC (GREEN HILLS),NSW,10.0,-31.41,151.60,1130
60148,WILLINA,NSW,10.0,-32.16,152.26,-999
61372,BLANDFORD (PAGES RIVER),NSW,10.0,-31.80,150.93,450
61412,COORANBONG (LAKE MACQUARIE AWS),NSW,10.0,-33.09,151.46,6
63295,BLACKHEATH (WOMBAT STREET),NSW,10.0,-33.63,150.28,1030
88051,REDESDALE,VIC,10.0,-37.02,144.52,290
89068,ROKEWOOD,VIC,10.0,-37.90,143.72,177
92141,GRAY (DALMAYNE RD),TAS,10.0,-41.63,148.23,384
22023,YORKETOWN,SA,9.8,-35.02,137.60,20
23887,KUITPO FOREST RESERVE,SA,9.8,-35.17,138.68,365
41550,GRAYS GATE EXCHANGE TM,QLD,9.8,-27.99,151.28,400
61392,MURRURUNDI GAP AWS,NSW,9.8,-31.74,150.79,729
64025,COOLAH (BINNIA ST),NSW,9.8,-31.82,149.72,495
70032,FAIRLIGHT STATION,NSW,9.8,-35.23,148.91,610
84016,GABO ISLAND LIGHTHOUSE,VIC,9.8,-37.57,149.92,15
88043,MARYBOROUGH,VIC,9.8,-37.06,143.73,249
90180,AIREYS INLET,VIC,9.8,-38.46,144.09,105
90147,COLAC (SHIRE OFFICE),VIC,9.7,-38.34,143.58,132
23910,KANGARILLA (SADDLEBAGS),SA,9.6,-35.13,138.69,385
26099,NARACOORTE AERODROME,SA,9.6,-36.98,140.73,50
39123,GLADSTONE RADAR,QLD,9.6,-23.86,151.26,75
41506,BENGALLA TM,QLD,9.6,-28.66,150.67,228
51165,QUAMBONE STATION COMPARISON,NSW,9.6,-30.93,147.87,155
61055,NEWCASTLE NOBBYS SIGNAL STATION AWS,NSW,9.6,-32.92,151.80,33
63022,COWRA AG RESEARCH STATION,NSW,9.6,-33.80,148.70,360
70242,ARANDA (BINDAGA ST),NSW,9.6,-35.26,149.07,630
82139,HUNTERS HILL,VIC,9.6,-36.21,147.54,981
88029,HEATHCOTE,VIC,9.6,-36.96,144.70,311
94239,LESLIE VALE,TAS,9.6,-42.96,147.24,305
39040,GIN GIN POST OFFICE,QLD,9.5,-24.99,151.96,64
51042,QUAMBONE STATION,NSW,9.5,-30.93,147.87,152
7212,GINGINJIBBY,WA,9.4,-24.61,117.65,-999
9007,CHIDLOW,WA,9.4,-31.86,116.27,300
9992,CAPEL NORTH,WA,9.4,-33.54,115.55,20
22018,WAROOKA,SA,9.4,-34.99,137.40,53
22031,MINLATON AERO,SA,9.4,-34.75,137.53,32
22803,CAPE WILLOUGHBY,SA,9.4,-35.84,138.13,55
23860,LONG RIDGE (GREENHILL),SA,9.4,-34.95,138.68,375
39083,ROCKHAMPTON AERO,QLD,9.4,-23.38,150.48,10
48243,LIGHTNING RIDGE VISITOR INFORMATION CENT,NSW,9.4,-29.43,147.97,154
51039,NYNGAN AIRPORT,NSW,9.4,-31.55,147.20,173
55245,NUNDLE (KEEVA),NSW,9.4,-31.50,151.03,670
58028,COALDALE (BELLONA),NSW,9.4,-29.38,152.79,140
61375,MANGROVE MOUNTAIN AWS,NSW,9.4,-33.29,151.21,305
87186,BALLAN (OLD MELBOURNE ROAD),VIC,9.4,-37.59,144.19,517
92144,MONAMETA (MATHINNA RD),TAS,9.4,-41.55,147.99,250
9636,COWARAMUP,WA,9.3,-33.84,115.07,120
9053,PEARCE RAAF,WA,9.2,-31.67,116.02,40
9710,BUREKUP,WA,9.2,-33.31,115.82,20
26012,KINGSTON SE,SA,9.2,-36.83,139.85,7
39290,BILOELA - VALBONA,QLD,9.2,-24.41,150.52,177
55066,WALLABADAH (WOODTON),NSW,9.2,-31.62,150.84,640
63039,KATOOMBA (FARNELLS RD),NSW,9.2,-33.71,150.30,1017
86074,MITCHAM,VIC,9.2,-37.82,145.19,155
9815,THE DUKE,WA,9.0,-33.88,122.57,61
26016,LUCINDALE POST OFFICE,SA,9.0,-36.97,140.37,30
39321,EIDSVOLD TM,QLD,9.0,-25.40,151.10,135
40947,CROFTBY ALERT,QLD,9.0,-28.15,152.57,173
48015,BREWARRINA HOSPITAL,NSW,9.0,-29.96,146.87,115
56028,URALLA (SALISBURY COURT),NSW,9.0,-30.73,151.51,1018
58222,MINNIE WATER (PUMP SHED),NSW,9.0,-29.78,153.26,30
59122,BELLBROOK (MACLEAY RIVER),NSW,9.0,-30.82,152.51,70
61078,WILLIAMTOWN RAAF,NSW,9.0,-32.79,151.84,8
61420,MIRANNIE (MAERANIE STATION),NSW,9.0,-32.39,151.37,178
70346,SUTTON (GOOLABRI DVE),NSW,9.0,-35.19,149.25,655
74148,NARRANDERA AIRPORT AWS,NSW,9.0,-34.71,146.51,145
82166,BLOOMFIELD PARK (EVERTON),VIC,9.0,-36.42,146.56,251
9018,GINGIN,WA,8.8,-31.35,115.90,92
26107,WILLALOOKA (NIOKA),SA,8.8,-36.44,140.34,41
63028,FAULCONBRIDGE (ST GEORGES CRESCENT),NSW,8.8,-33.69,150.53,460
81019,NAGAMBIE (GOULBURN WEIR),VIC,8.8,-36.72,145.17,122
90167,WINCHELSEA (POST OFFICE),VIC,8.8,-38.24,143.99,85
23720,HAHNDORF,SA,8.7,-35.02,138.81,341
9500,ALBANY,WA,8.6,-35.03,117.88,3
18192,NORTH SHIELDS (PORT LINCOLN AWS),SA,8.6,-34.60,135.88,9
33045,MACKAY AERO,QLD,8.6,-21.17,149.18,5
33170,MYSTERY PARK,QLD,8.6,-22.36,149.37,40
41546,AVOCA TM,QLD,8.6,-27.98,150.52,290
55337,CRAWNEY MOUNTAIN,NSW,8.6,-31.59,151.00,1444
72162,KHANCOBAN AWS,NSW,8.6,-36.23,148.14,339
82106,MIITA MITTA RIVER @ TALLANDOON,VIC,8.6,-36.41,147.23,280
92003,BICHENO (COUNCIL DEPOT),TAS,8.6,-41.87,148.30,11
96070,HERMITAGE (SHANNON RIVER),TAS,8.6,-42.26,146.88,500
123700,INGLEWOOD,SA,8.6,-34.81,138.77,372
41095,STANTHORPE LESLIE PARADE,QLD,8.5,-28.66,151.93,784
2009,GIBB RIVER,WA,8.4,-16.42,126.44,488
3093,FITZROY CROSSING AERO,WA,8.4,-18.18,125.56,115
9573,MANJIMUP,WA,8.4,-34.25,116.15,287
9865,WARRA JARRA,WA,8.4,-34.40,118.89,90
14031,CHARLES POINT,NT,8.4,-12.39,130.63,14
23108,LONGWOOD ALERT,SA,8.4,-35.05,138.73,458
23732,ADELAIDE (MORPHETT VALE),SA,8.4,-35.14,138.53,92
23753,WILLUNGA,SA,8.4,-35.27,138.56,104
24579,MT TORRENS,SA,8.4,-34.88,138.97,520
32064,PALUMA IVY COTTAGE,QLD,8.4,-19.01,146.21,878
33210,ST LAWRENCE,QLD,8.4,-22.35,149.52,9
40170,PECHEY FORESTRY,QLD,8.4,-27.30,152.05,667
72152,ARGALONG (SANDY CREEK),NSW,8.4,-35.32,148.43,700
9039,SERPENTINE,WA,8.2,-32.35,116.01,120
9178,GINGIN AERO,WA,8.2,-31.46,115.86,73
9275,MUCHEA,WA,8.2,-31.59,115.97,60
23866,VERDUN,SA,8.2,-35.01,138.80,315
40212,EAGLE FARM RACECOURSE,QLD,8.2,-27.43,153.07,12
51160,GILGANDRA (ROSEWOOD),NSW,8.2,-31.70,148.63,288
57114,BARYULGIL (CLARENCE RIVER),NSW,8.2,-29.20,152.60,-999
63292,MOUNT BOYCE AWS,NSW,8.2,-33.62,150.27,1080
73151,TEMORA AIRPORT,NSW,8.2,-34.43,147.51,281
78073,KANIVA COMPARISON,VIC,8.2,-36.37,141.24,142
90077,TERANG,VIC,8.2,-38.24,142.92,131
90173,HAMILTON AIRPORT,VIC,8.2,-37.65,142.06,241
93053,ROSS (THE BOULEVARDS),TAS,8.2,-42.03,147.50,186
9538,DWELLINGUP,WA,8.0,-32.71,116.06,267
10073,KELLERBERRIN,WA,8.0,-31.62,117.72,250
10310,WERRIBEE,WA,8.0,-31.77,116.33,295
18086,TUMBY BAY,SA,8.0,-34.38,136.10,2
22009,MINLATON,SA,8.0,-34.77,137.60,70
23000,ADELAIDE (WEST TERRACE / NGAYIRDAPIRA),SA,8.0,-34.93,138.58,29
23723,INMAN VALLEY,SA,8.0,-35.49,138.47,91
23787,BALHANNAH (GUMBOOYA),SA,8.0,-35.02,138.86,406
23880,IRONSTONE ROAD,SA,8.0,-34.76,138.93,440
23881,CROMER ROAD,SA,8.0,-34.77,139.01,455
23911,MYLOR (BIGGS FLAT),SA,8.0,-35.06,138.76,312
39128,BUNDABERG AERO,QLD,8.0,-24.91,152.32,31
40841,CROFTBY TM,QLD,8.0,-28.15,152.57,162
40979,MORAYFIELD (PETERSEN RD) ALERT,QLD,8.0,-27.12,152.94,24
44232,THE 27 MILE GARDEN AL,QLD,8.0,-26.08,146.42,324
57079,WOLLOMOMBI (WOLLOMOMBI RIVER),NSW,8.0,-30.52,152.04,900
60128,NUNDLE (BARRY (BARNARD RIVER)),NSW,8.0,-31.58,151.32,610
63081,FAULCONBRIDGE (GREAT WESTERN HWY),NSW,8.0,-33.69,150.55,428
70214,PARKERS GAP,NSW,8.0,-35.63,149.50,1249
74127,WAGGA WAGGA (GURWOOD STREET),NSW,8.0,-35.11,147.36,180
96038,VERWOOD (ISIS RIVER),TAS,8.0,-42.06,147.29,308
18044,KYANCUTTA,SA,7.9,-33.13,135.55,59
1006,WYNDHAM AERO,WA,7.8,-15.51,128.15,4
23005,ADELAIDE (GLEN OSMOND),SA,7.8,-34.95,138.65,128
33023,FARLEIGH CO-OP SUGAR MILL,QLD,7.8,-21.10,149.10,47
56034,URALLA (DUMARESQ ST),NSW,7.8,-30.64,151.49,1012
81085,DUNOLLY,VIC,7.8,-36.86,143.73,210
86035,ELTHAM,VIC,7.8,-37.70,145.16,44
87185,POINT COOK RAAF,VIC,7.8,-37.93,144.76,3
90187,BOONAH,VIC,7.8,-38.41,143.98,-999
92153,COPPING (YAXLEY ESTATE),TAS,7.8,-42.82,147.79,150
9264,TAMALA PARK (MINDARIE),WA,7.7,-31.71,115.72,20
2043,MOUNT KRAUSS,WA,7.6,-18.34,126.12,160
9274,MINSTON PARK,WA,7.6,-31.26,116.13,298
23114,BEAUMONT,SA,7.6,-34.95,138.66,225
23733,MOUNT BARKER,SA,7.6,-35.07,138.85,359
23920,WOODSIDE (WICKS ESTATE),SA,7.6,-34.96,138.87,348
29127,MOUNT ISA AERO,QLD,7.6,-20.68,139.49,340
35186,BLACKDOWN TABLELAND AL,QLD,7.6,-23.77,149.12,952
51161,COONAMBLE AIRPORT AWS,NSW,7.6,-30.98,148.38,181
53002,BARADINE FORESTRY,NSW,7.6,-30.95,149.07,302
53033,PALLAMALLAWA POST OFFICE,NSW,7.6,-29.47,150.14,230
63061,TRUNKEY (OLD POST OFFICE),NSW,7.6,-33.82,149.32,840
69138,ULLADULLA AWS,NSW,7.6,-35.36,150.48,36
80091,KYABRAM,VIC,7.6,-36.34,145.06,105
81087,BUNGEET (HIGHLANDS),VIC,7.6,-36.26,146.04,274
87031,LAVERTON RAAF,VIC,7.6,-37.86,144.76,20
61349,GOSTWYCK BRIDGE (PATERSON RIVER),NSW,7.5,-32.57,151.61,-999
23786,BIRDWOOD (MCVITTIE\'S HILL),SA,7.4,-34.83,139.01,484
23892,MONTACUTE,SA,7.4,-34.89,138.76,312
23916,BELLEVUE HEIGHTS,SA,7.4,-35.03,138.59,210
33295,ALVA BEACH,QLD,7.4,-19.46,147.48,8
43108,BENDOBA TM,QLD,7.4,-25.96,148.39,470
66141,MONA VALE GOLF CLUB,NSW,7.4,-33.68,151.31,10
72150,WAGGA WAGGA AMO,NSW,7.4,-35.16,147.46,212
73014,GRENFELL (MANGANESE RD),NSW,7.4,-33.89,148.15,390
88167,PUCKAPUNYAL LYON HILL (DEFENCE),VIC,7.4,-36.94,145.05,193
89112,WESTMERE,VIC,7.4,-37.71,142.94,226
94222,KINGSTON (GREENHILL DRIVE),TAS,7.4,-42.97,147.30,54
99005,FLINDERS ISLAND AIRPORT,TAS,7.4,-40.09,148.00,9
2069,KACHANA,WA,7.3,-16.44,127.78,270
9776,ASTON DOWNS ALERT,WA,7.2,-33.79,115.32,80
9964,ROCKY GULLY,WA,7.2,-34.57,117.01,250
11022,OLD EUCLA,WA,7.2,-31.71,128.89,5
23896,ATHELSTONE (BLACK HILL ALERT),SA,7.2,-34.88,138.71,238
33195,WILLIAMSON,QLD,7.2,-22.47,150.18,28
61071,STROUD POST OFFICE,NSW,7.2,-32.40,151.97,44
61366,NORAH HEAD AWS,NSW,7.2,-33.28,151.58,19
81083,EPPALOCK RESERVOIR,VIC,7.2,-36.85,144.53,201
90021,COBDEN (POST OFFICE),VIC,7.2,-38.33,143.08,134
90176,MORTLAKE RACECOURSE,VIC,7.2,-38.07,142.77,130
93049,MOUNT SEYMOUR,TAS,7.2,-42.37,147.46,628
99015,WHITEMARK POST OFFICE,TAS,7.2,-40.12,148.02,5
9784,KIMBERLEY,WA,7.0,-34.93,117.16,80
9813,MOUNT HOWICK,WA,7.0,-33.73,122.76,110
18012,CEDUNA AMO,SA,7.0,-32.13,133.70,15
41365,PIKEDALE TM,QLD,7.0,-28.65,151.63,560
54029,WARIALDA POST OFFICE,NSW,7.0,-29.54,150.58,320
55262,OGUNBIL (AMAROO),NSW,7.0,-31.35,151.32,585
58231,GRAFTON SOUTH (SOUTH GRAFTON (CLARENCE,NSW,7.0,-29.77,152.92,77
61195,MURRURUNDI (TIMOR),NSW,7.0,-31.77,151.08,415
65111,COWRA AIRPORT AWS,NSW,7.0,-33.84,148.65,300
70308,TORRENS (DARKE ST),NSW,7.0,-35.38,149.09,653
78030,TELOPEA DOWNS (MEENGO RAIN GAUGE),VIC,7.0,-36.08,141.10,142
86131,YAN YEAN,VIC,7.0,-37.56,145.13,198
86388,FRANKSTON (BALLAM PARK),VIC,7.0,-38.15,145.16,59
88124,TABILK (TAHBILK WINERY),VIC,7.0,-36.83,145.09,131
89018,LISMORE (POST OFFICE),VIC,7.0,-37.95,143.34,178
92020,LEWIS HILL (ST PAULS RIVER),TAS,7.0,-41.82,147.96,229
40490,CARNEYS CREEK THE RANCH,QLD,6.9,-28.21,152.54,268
9258,ANKETELL,WA,6.8,-32.22,115.88,18
22014,PORT VINCENT,SA,6.8,-34.78,137.86,8
23042,BURNSIDE,SA,6.8,-34.94,138.66,-999
23719,GUMERACHA,SA,6.8,-34.82,138.89,339
43006,MOOGA HILLS TM,QLD,6.8,-26.25,148.95,380
48027,COBAR MO,NSW,6.8,-31.48,145.83,260
48190,GOODOOGA (WIRRAWA),NSW,6.8,-29.35,147.40,131
50144,DANDALOO (HAZELBROOK) COMPARISON,NSW,6.8,-32.38,147.73,209
52023,PILLIGA POST OFFICE,NSW,6.8,-30.35,148.88,162
55202,GUNNEDAH AIRPORT AWS,NSW,6.8,-30.95,150.25,263
56202,BLACK SWAMP (MAXWELL),NSW,6.8,-28.98,152.16,820
81034,MOOROOPNA,VIC,6.8,-36.40,145.34,108
92146,LAKE LEAKE (FWS),TAS,6.8,-42.01,147.80,570
109521,WITCHCLIFFE WEST,WA,6.8,-34.03,115.06,85
78086,JEPARIT,VIC,6.7,-36.14,141.99,81
7185,PARABURDOO AERO,WA,6.6,-23.17,117.75,424
9619,WILGARRUP,WA,6.6,-34.15,116.20,240
29126,MOUNT ISA MINE,QLD,6.6,-20.74,139.48,381
35007,BAUHINIA DOWNS STORE,QLD,6.6,-24.57,149.29,146
46115,TILPA (TREVALLYN),NSW,6.6,-31.39,144.04,90
74118,WHITTON (CONAPAIRA ST),NSW,6.6,-34.51,146.18,132
75178,MERRIWAGGA (OLD SCHOOL CARAVAN PARK) COM,NSW,6.6,-33.81,145.63,179
81120,RUSHWORTH (RAGLUS),VIC,6.6,-36.58,145.01,160
81127,AVOCA RIVER AT ARCHDALE JUNCTION,VIC,6.6,-36.89,143.50,-999
86350,WALLAN,VIC,6.6,-37.42,144.98,341
89034,WILLAURA (MAIN STREET),VIC,6.6,-37.55,142.74,250
90022,COLAC AIRPORT,VIC,6.6,-38.28,143.66,122
95046,BOTHWELL (CLYDE RIVER),TAS,6.6,-42.38,147.00,350
9243,WOODRIDGE ESTATE,WA,6.5,-31.34,115.57,30
7008,BRYAH,WA,6.4,-25.51,118.80,550
9021,PERTH AIRPORT,WA,6.4,-31.93,115.98,15
23140,MITCHELL PARK (MARION),SA,6.4,-35.01,138.56,32
33060,PLEYSTOWE SUGAR MILL,QLD,6.4,-21.14,149.04,27
41525,WARWICK,QLD,6.4,-28.21,152.10,475
55044,BOGGABRI (RETREAT),NSW,6.4,-30.70,150.28,302
61377,SWANSEA (CATHERINE ST),NSW,6.4,-33.09,151.63,3
74261,BECKOM (WALLEROOBIE (GOLDEN VALLEY)),NSW,6.4,-34.53,146.98,249
80130,WEST PRAIRIE,VIC,6.4,-36.27,144.17,104
81125,SHEPPARTON AIRPORT,VIC,6.4,-36.43,145.39,114
87068,MOORABOOL RIVER AT LAL LAL,VIC,6.4,-37.65,144.04,-999
89025,SKIPTON (GOLF COURSE),VIC,6.4,-37.69,143.37,299
89074,DERRINALLUM (POST OFFICE),VIC,6.4,-37.95,143.22,177
9225,PERTH METRO,WA,6.2,-31.92,115.87,25
14149,HOWARD SPRINGS NATURE PARK,NT,6.2,-12.46,131.05,34
23105,BROWNHILL CREEK (SCOTCH COLLEGE),SA,6.2,-34.98,138.62,116
26100,PADTHAWAY SOUTH,SA,6.2,-36.65,140.52,37
55024,GUNNEDAH RESOURCE CENTRE,NSW,6.2,-31.03,150.27,307
55049,QUIRINDI POST OFFICE,NSW,6.2,-31.51,150.68,390
61339,CLARENCETOWN (MILL DAM FALLS (WILLIAMS R,NSW,6.2,-32.56,151.80,10
64027,COONABARABRAN (BARINA -TM),NSW,6.2,-31.31,149.20,615
68262,HIGH RANGE AWS (WANGANDERRY),NSW,6.2,-34.33,150.27,814
81046,STANHOPE,VIC,6.2,-36.44,144.98,108
87042,MEREDITH,VIC,6.2,-37.83,144.06,355
92154,LITTLE SWANPORT (LISDILLON FARM),TAS,6.2,-42.29,148.00,20
94029,HOBART (ELLERSLIE ROAD),TAS,6.2,-42.89,147.33,51
94143,MAURICETON (JORDAN RIVER),TAS,6.2,-42.53,147.12,149
94172,TEA TREE (THE POINT),TAS,6.2,-42.65,147.36,345
9613,WARNER GLEN,WA,6.0,-34.14,115.23,30
9965,BUNBURY,WA,6.0,-33.36,115.64,5
10619,NYABING,WA,6.0,-33.54,118.15,330
22008,MAITLAND,SA,6.0,-34.37,137.67,185
23115,ADELAIDE (KESWICK),SA,6.0,-34.95,138.58,34
23314,RIVERTON,SA,6.0,-34.16,138.75,265
23754,YANKALILLA,SA,6.0,-35.46,138.35,45
25006,KAROONDA,SA,6.0,-35.09,139.90,72
32032,MACKNADE SUGAR MILL,QLD,6.0,-18.59,146.25,8
35070,TAROOM POST OFFICE,QLD,6.0,-25.64,149.80,199
35073,TOLINESS STATION,QLD,6.0,-25.32,146.02,335
35124,CLERMONT AIRPORT,QLD,6.0,-22.78,147.62,270
39073,MUNDUBBERA,QLD,6.0,-25.59,151.30,143
39352,BUNDABERG ALERT,QLD,6.0,-24.86,152.35,17
41112,GIDDI GIDDI SOUTH TM,QLD,6.0,-28.40,150.05,196
41457,COOLMUNDA DAM,QLD,6.0,-28.42,151.21,321
41534,WARWICK ALERT,QLD,6.0,-28.21,152.03,448
43075,MUNNAWEENA,QLD,6.0,-25.80,147.95,424
55308,BENDEMEER (BONNA),NSW,6.0,-30.88,151.16,830
60069,COOPLACURRIPA,NSW,6.0,-31.63,151.96,252
61382,WYONG (KULNURA (JEAVONS)),NSW,6.0,-33.17,151.22,270
61406,NEWCASTLE (BLACKSMITHS),NSW,6.0,-33.08,151.65,2
61418,BARRINGTON TOPS (MOUNT BARRINGTON),NSW,6.0,-32.04,151.40,1549
68218,WATTAMOLLA (GRIFFITHS),NSW,6.0,-34.72,150.65,140
70278,COOMA VISITORS CENTRE,NSW,6.0,-36.23,149.12,778
73100,BUMBALDRY (BUSHVIEW),NSW,6.0,-33.91,148.44,465
79105,STAWELL AERODROME,VIC,6.0,-37.07,142.74,235
80056,TONGALA,VIC,6.0,-36.25,144.96,104
80109,COBRAM (GOULBURN MURRAY),VIC,6.0,-35.91,145.64,113
81008,COLBINABBIN,VIC,6.0,-36.54,144.78,144
81049,TATURA INST SUSTAINABLE AG,VIC,6.0,-36.44,145.27,114
84118,WONNANGATTA RIVER @ WATERFORD,VIC,6.0,-37.49,147.17,200
9248,MOONDAH BROOK,WA,5.8,-31.33,115.95,113
9822,DALYUP PARK,WA,5.8,-33.78,121.56,30
9971,ACTON PARK,WA,5.8,-33.78,115.41,120
9994,COLLIE EAST,WA,5.8,-33.36,116.17,200
23101,FELIXSTOW (PAYNEHAM),SA,5.8,-34.89,138.64,45
23879,CUDLEE CREEK (ODEA ROAD),SA,5.8,-34.85,138.88,492
25504,COONALPYN,SA,5.8,-35.69,139.85,22
43008,SPRINGDALE TM,QLD,5.8,-26.17,148.66,400
48168,ANGLEDOOL (ANGLEDOOL STATION),NSW,5.8,-29.12,147.90,150
48254,ANGLEDOOL (ANGLEDOOL STATION) COMPARISON,NSW,5.8,-29.12,147.90,149
55313,GOONOO GOONOO (GOONOO GOONOO CREEK),NSW,5.8,-31.27,150.92,450
64008,COONABARABRAN (SHOWGROUNDS),NSW,5.8,-31.28,149.28,520
70351,CANBERRA AIRPORT,NSW,5.8,-35.31,149.20,577
87016,MOORABOOL RIVER AT MORRISONS,VIC,5.8,-37.77,144.10,-999
87168,SHE OAKS,VIC,5.8,-37.91,144.13,237
92163,FINGAL (FLEMING ST),TAS,5.8,-41.64,147.98,255
94204,TEA TREE POINT,TAS,5.8,-42.65,147.36,350
2068,MARION DOWNS,WA,5.6,-17.07,126.85,460
3094,WINDJANA GORGE,WA,5.6,-17.42,124.92,95
7177,MININER,WA,5.6,-23.60,117.69,450
9585,NANNUP,WA,5.6,-33.98,115.77,100
32197,INNISFAIL AERODROME,QLD,5.6,-17.56,146.01,12
41540,BEARDY JUNCTION,QLD,5.6,-29.17,151.34,326
55312,MANILLA (MUSEUM),NSW,5.6,-30.75,150.72,358
74258,DENILIQUIN AIRPORT AWS,NSW,5.6,-35.56,144.95,94
81016,ELMORE,VIC,5.6,-36.50,144.61,130
90005,BEEAC (POST OFFICE),VIC,5.6,-38.20,143.64,120
92149,GRINDSTONE POINT,TAS,5.6,-42.45,147.98,10
92158,NUGENT (TWILIGHT VALLEY TBRG),TAS,5.6,-42.72,147.75,318
94195,TUNNACK FIRE STATION,TAS,5.6,-42.45,147.46,462
86210,BONBEACH (CARRUM (PATTERSON RIVER COUNTR,VIC,5.5,-38.07,145.13,5
9268,JULIMAR FOREST,WA,5.4,-31.46,116.37,342
9912,FERGUSON VALLEY,WA,5.4,-33.45,115.85,120
14226,HUMPTY DOO COLLARD ROAD,NT,5.4,-12.58,131.08,30
23085,ROSSLYN PARK (SEAVIEW),SA,5.4,-34.92,138.68,179
23731,CUDLEE CREEK (MILLBROOK RESERVOIR),SA,5.4,-34.83,138.82,315
26026,ROBE,SA,5.4,-37.16,139.76,3
26105,ROBE AIRFIELD,SA,5.4,-37.18,139.81,3
41464,OAKINGTON,QLD,5.4,-28.15,152.33,602
51038,NEVERTIRE (CLYDE ST),NSW,5.4,-31.84,147.72,197
52020,MUNGINDI POST OFFICE,NSW,5.4,-28.98,148.99,160
73142,COOTAMUNDRA AIRPORT,NSW,5.4,-34.63,148.04,335
73150,STOCKINBINGAL (SUNNYDALE),NSW,5.4,-34.53,147.84,340
75039,LAKE CARGELLIGO AIRPORT,NSW,5.4,-33.28,146.37,169
89104,LEIGH RIVER @ MOUNT MERCER,VIC,5.4,-37.81,143.92,-999
2036,OLD MORNINGTON HOMESTEAD,WA,5.2,-17.39,126.23,280
23055,ADELAIDE AIRPORT ALERT,SA,5.2,-34.95,138.52,2
26095,CAPE JAFFA (THE LIMESTONE),SA,5.2,-36.97,139.72,17
41522,DALBY AIRPORT,QLD,5.2,-27.16,151.26,346
61428,MAITLAND AIRPORT AWS,NSW,5.2,-32.70,151.49,28
69055,GREEN CAPE LIGHTHOUSE,NSW,5.2,-37.26,150.05,20
79040,ST ARNAUD,VIC,5.2,-36.62,143.26,240
94212,CAMPANIA (KINCORA),TAS,5.2,-42.69,147.43,45
94254,DUNALLEY (STROUD POINT),TAS,5.2,-42.90,147.79,12
109507,FERGUSON VALLEY ALERT,WA,5.2,-33.44,115.85,160
7083,TUREE CREEK,WA,5.0,-23.62,118.66,530
7209,COBRA AIRSTRIP,WA,5.0,-24.20,116.48,373
9789,ESPERANCE,WA,5.0,-33.83,121.89,25
9978,JINDONG,WA,5.0,-33.76,115.21,42
18024,DARKE PEAK,SA,5.0,-33.47,136.21,165
18106,NULLARBOR,SA,5.0,-31.45,130.90,64
22056,MAITLAND (CARINYA RNDSUP),SA,5.0,-34.40,137.72,202
23877,KERSBROOK,SA,5.0,-34.79,138.87,350
24583,WOODSIDE (INVERBRACKIE),SA,5.0,-34.95,138.93,447
24590,MOUNT PLEASANT WTP,SA,5.0,-34.80,139.05,475
27054,COCONUT ISLAND,QLD,5.0,-10.05,143.07,4
33300,DUMBLETON ROCKS ALERT,QLD,5.0,-21.14,149.08,0
33301,WHITEFORD\'S ALERT,QLD,5.0,-21.32,148.84,58
39320,JONES WEIR TW TM,QLD,5.0,-25.59,151.30,104
41531,GLENGALLAN CREEK ALERT,QLD,5.0,-28.12,152.06,460
41548,TEXAS TM,QLD,5.0,-28.87,151.16,272
42036,BAWNDUGGIE AL,QLD,5.0,-26.16,150.84,380
43080,KAROOLA PARK,QLD,5.0,-27.23,148.74,249
48237,COBAR AIRPORT AWS,NSW,5.0,-31.54,145.80,218
50014,CONDOBOLIN RETIREMENT VILLAGE,NSW,5.0,-33.08,147.15,220
63271,TUENA (WYOMING),NSW,5.0,-34.04,149.36,510
64017,COONABARABRAN AIRPORT AWS,NSW,5.0,-31.33,149.27,645
64029,DUNEDOO (SHELL),NSW,5.0,-32.02,149.39,390
67065,HORNSBY (SWIMMING POOL),NSW,5.0,-33.70,151.10,180
69137,GREEN CAPE AWS,NSW,5.0,-37.26,150.05,19
69145,MORUYA (PLUMWOOD),NSW,5.0,-35.98,149.86,930
70339,TUGGERANONG (ISABELLA PLAINS) AWS,NSW,5.0,-35.42,149.09,587
80015,ECHUCA AERODROME,VIC,5.0,-36.16,144.76,96
89103,DERRINALLUM (CRAIGMORE),VIC,5.0,-37.97,143.22,173
90024,COLERAINE HOSPITAL,VIC,5.0,-37.60,141.69,114
93046,BIRRALEE CREEK,TAS,5.0,-42.31,147.57,390
94022,FORT DIRECTION,TAS,5.0,-43.04,147.41,26
94064,WATTLE HILL,TAS,5.0,-42.76,147.62,104
7208,MOUNT AUGUSTUS AIRSTRIP,WA,4.8,-24.31,116.91,389
9193,ROTTNEST ISLAND,WA,4.8,-32.01,115.50,43
9803,CHAPMAN HILL,WA,4.8,-33.78,115.34,60
9999,ALBANY AIRPORT,WA,4.8,-34.94,117.82,68
10307,QUADNEY,WA,4.8,-31.79,116.63,310
18176,COWELL (WINTER SPRINGS),SA,4.8,-33.34,136.75,281
22017,STANSBURY,SA,4.8,-34.91,137.80,5
22054,PINE POINT (AMELIA DOWNS),SA,4.8,-34.56,137.86,70
23013,PARAFIELD AIRPORT,SA,4.8,-34.80,138.63,10
23143,MORPHETTVILLE,SA,4.8,-34.98,138.54,17
23871,SELLICKS BEACH,SA,4.8,-35.32,138.46,25
23922,FORRESTON ALERT,SA,4.8,-34.79,138.90,392
50137,CONDOBOLIN AIRPORT AWS,NSW,4.8,-33.07,147.21,193
52088,WALGETT AIRPORT AWS,NSW,4.8,-30.04,148.12,133
58077,GRAFTON RESEARCH STN,NSW,4.8,-29.62,152.96,25
61209,PUTTY TEA ROOMS,NSW,4.8,-32.96,150.68,280
63032,GOLSPIE (AYRSTON),NSW,4.8,-34.28,149.67,855
64009,DUNEDOO POST OFFICE,NSW,4.8,-32.02,149.40,388
70043,GUNNING RURAL SUPPLIES,NSW,4.8,-34.78,149.27,578
73019,JUNEE TREATMENT WORKS,NSW,4.8,-34.85,147.57,280
73115,BRUNGLE (BONNIE DOON),NSW,4.8,-35.16,148.23,265
79036,NATIMUK,VIC,4.8,-36.74,141.94,122
80049,ROCHESTER,VIC,4.8,-36.36,144.71,114
81123,BENDIGO AIRPORT,VIC,4.8,-36.74,144.33,209
93059,FOSTERVILLE,TAS,4.8,-41.93,147.43,177
94255,DENNES POINT,TAS,4.8,-43.06,147.36,6
109513,MUMBALLUP ORGANICS,WA,4.8,-33.54,116.12,246
9518,CAPE LEEUWIN,WA,4.6,-34.37,115.14,13
9752,DENBARKER,WA,4.6,-34.75,117.34,205
10076,KONNONGORRING,WA,4.6,-31.06,116.73,240
18040,KIMBA,SA,4.6,-33.14,136.41,280
23034,ADELAIDE AIRPORT,SA,4.6,-34.95,138.52,2
23705,BIRDWOOD,SA,4.6,-34.80,138.95,389
31213,CAPE FLATTERY,QLD,4.6,-14.97,145.31,19
40455,DUNOLLIE,QLD,4.6,-25.85,151.37,152
53114,ROCKY GLEN (BORAH STATION),NSW,4.6,-31.01,149.55,380
58080,WOOLI BEACH,NSW,4.6,-29.86,153.26,5
61287,MERRIWA (ROSCOMMON),NSW,4.6,-32.19,150.17,375
66211,WAHROONGA (ADA AVENUE),NSW,4.6,-33.72,151.11,184
70147,GOULBURN (HILLWOOD),NSW,4.6,-34.56,149.74,740
75180,LAKE CARGELLIGO AIRPORT COMPARISON,NSW,4.6,-33.28,146.37,179
87043,MEREDITH (DARRA),VIC,4.6,-37.82,144.15,362
92079,TOOMS LAKE (TOOMS RIVER),TAS,4.6,-42.21,147.78,469
9215,SWANBOURNE,WA,4.4,-31.96,115.76,41
9842,JARRAHWOOD,WA,4.4,-33.80,115.67,130
9990,BOYANUP NORTH,WA,4.4,-33.48,115.74,43
55164,WEABONGA (STONELEIGH),NSW,4.4,-31.18,151.30,690
66059,TERREY HILLS AWS,NSW,4.4,-33.69,151.23,199
70362,DALTON (HILLVIEW),NSW,4.4,-34.72,149.17,588
72156,MURRAY RIVER @ JINGELLIC,NSW,4.4,-35.93,147.72,-999
74034,COROWA AIRPORT,NSW,4.4,-35.99,146.36,143
75177,HILLSTON AIRPORT COMPARISON,NSW,4.4,-33.49,145.53,119
80128,CHARLTON,VIC,4.4,-36.28,143.33,132
81007,CANIAMBO,VIC,4.4,-36.46,145.66,130
86096,PRESTON RESERVOIR,VIC,4.4,-37.72,145.01,94
9617,BRIDGETOWN,WA,4.2,-33.95,116.13,179
9831,KING RIVER,WA,4.2,-34.92,117.89,25
22013,PORT VICTORIA,SA,4.2,-34.49,137.48,15
23083,EDINBURGH RAAF,SA,4.2,-34.71,138.62,17
25507,KEITH,SA,4.2,-36.10,140.36,29
48248,GUMBOOKA,NSW,4.2,-29.79,146.29,113
62100,NULLO MOUNTAIN AWS,NSW,4.2,-32.72,150.23,1130
66052,RANDWICK (RANDWICK ST),NSW,4.2,-33.91,151.24,74
68252,KIAMA (BRIGHTON ST),NSW,4.2,-34.67,150.85,62
70025,CROOKWELL POST OFFICE,NSW,4.2,-34.46,149.47,887
73050,BOWNING (WANGANUI),NSW,4.2,-34.76,148.83,560
75179,GROONGAL (GROONGAL STATION) COMPARISON,NSW,4.2,-34.44,145.56,111
79101,PYRENEES (BEN NEVIS),VIC,4.2,-37.23,143.20,875
80067,CHARLTON (DONALD ST),VIC,4.2,-36.27,143.35,130
86305,GREENVALE RESERVOIR,VIC,4.2,-37.64,144.91,156
93052,MOUNT MORRISTON (MACQUARIE RIVER),TAS,4.2,-42.16,147.58,218
3051,MOUNT BARNETT,WA,4.0,-16.74,125.91,401
5069,PANNAWONICA,WA,4.0,-21.64,116.33,200
9991,DONNYBROOK EAST,WA,4.0,-33.57,115.84,120
10582,KOJONUP,WA,4.0,-33.83,117.16,305
15635,YULARA AIRPORT,NT,4.0,-25.19,130.97,492
16055,YARDEA,SA,4.0,-32.38,135.52,260
18001,ARNO BAY,SA,4.0,-33.91,136.57,9
23804,VICTOR HARBOR (ENCOUNTER BAY),SA,4.0,-35.55,138.60,8
23878,MOUNT CRAWFORD AWS,SA,4.0,-34.73,138.93,525
24580,STRATHALBYN RACECOURSE,SA,4.0,-35.28,138.89,58
25564,SHAUGH (COOLAMI),SA,4.0,-35.84,140.82,123
32167,EURAMO TM,QLD,4.0,-17.99,145.94,10
33306,EMU CREEK ALERT,QLD,4.0,-20.41,148.23,218
41120,YANGAN POST OFFICE,QLD,4.0,-28.20,152.21,536
43033,TINDARRA TM,QLD,4.0,-26.47,148.80,350
55016,DANGLEMAH (RUTHERGLEN),NSW,4.0,-31.00,151.23,655
61268,MAITLAND BELMORE BRIDGE (HUNTER RIVER),NSW,4.0,-32.73,151.56,-999
63297,TARANA (FISH RIVER),NSW,4.0,-33.57,149.91,780
66011,CHATSWOOD BOWLING CLUB,NSW,4.0,-33.80,151.18,-999
68044,MITTAGONG (ALFRED STREET),NSW,4.0,-34.45,150.46,635
75142,MERRIWAGGA (SYLVANHAM),NSW,4.0,-33.92,145.52,107
78018,KELLALAC (WARRACKNABEAL AIRPORT),VIC,4.0,-36.32,142.42,118
78087,YANAC NORTH COMPARISON,VIC,4.0,-36.11,141.46,135
79097,KANAGULK,VIC,4.0,-37.12,141.80,189
80061,WEDDERBURN (POST OFFICE),VIC,4.0,-36.42,143.61,200
87113,AVALON AIRPORT,VIC,4.0,-38.03,144.48,11
200288,NORFOLK ISLAND AERO,NSW,4.0,-29.04,167.94,112
9633,TAMAR,WA,3.8,-34.86,118.11,90
9635,FRANKLAND,WA,3.8,-34.36,117.08,230
23725,KEYNETON,SA,3.8,-34.56,139.13,379
37034,THE MONUMENT AIRPORT,QLD,3.8,-21.81,139.93,288
41547,WALLANGARRA TM,QLD,3.8,-28.92,151.93,877
61373,PARKVILLE (KINGDON PONDS),NSW,3.8,-31.96,150.86,200
61425,GOSFORD AWS,NSW,3.8,-33.44,151.36,7
62101,MUDGEE AIRPORT AWS,NSW,3.8,-32.56,149.61,471
68224,ROBERTSON (THE PIE SHOP),NSW,3.8,-34.59,150.63,735
70005,BOMBALA (THERRY STREET),NSW,3.8,-36.91,149.24,705
94087,KUNANYI (MOUNT WELLINGTON PINNACLE),TAS,3.8,-42.90,147.24,1261
94182,BELOW CRAIGBOURNE DAM (COAL RIVER),TAS,3.8,-42.56,147.40,150
2064,ARGYLE AERODROME,WA,3.6,-16.64,128.45,164
9256,GARDEN ISLAND HSF,WA,3.6,-32.24,115.68,6
10111,NORTHAM,WA,3.6,-31.65,116.66,170
14816,OLD DELAMERE,NT,3.6,-15.74,131.53,102
14866,UPPER VICTORIA RIVER,NT,3.6,-17.61,130.07,406
22055,CURRAMULKA NORTH RNDSUP,SA,3.6,-34.65,137.73,162
23133,GREENACRES,SA,3.6,-34.87,138.64,66
23825,GOOLWA BARRAGE,SA,3.6,-35.53,138.81,1
33310,SOUTH YAAMBA TM,QLD,3.6,-23.20,150.40,10
37000,ALNI,QLD,3.6,-22.15,142.49,200
43095,NAMARAH,QLD,3.6,-27.39,149.39,332
44026,CUNNAMULLA POST OFFICE,QLD,3.6,-28.07,145.68,189
53044,WEE WAA (GEORGE ST),NSW,3.6,-30.23,149.45,190
61363,SCONE AIRPORT AWS,NSW,3.6,-32.03,150.83,221
63303,ORANGE AIRPORT AWS,NSW,3.6,-33.38,149.13,945
68239,MOSS VALE AWS,NSW,3.6,-34.53,150.42,678
70016,CAPTAINS FLAT (FOXLOW ST),NSW,3.6,-35.59,149.45,850
70201,GOOGONG HILL,NSW,3.6,-35.48,149.24,1015
74081,MULWALA POST OFFICE,NSW,3.6,-35.99,146.01,127
79028,LONGERENONG,VIC,3.6,-36.67,142.30,133
81124,YARRAWONGA,VIC,3.6,-36.03,146.03,129
89033,WICKLIFFE,VIC,3.6,-37.69,142.73,222
109509,CHAPMAN HILL ROAD CB2,WA,3.6,-33.74,115.35,29
109517,SOMME CREEK,WA,3.6,-33.96,116.14,180
54146,HAYSTACK (BEARDY RIVER),NSW,3.5,-29.23,151.38,-999
7210,BURRINGURRAH AIRSTRIP,WA,3.4,-24.63,116.95,454
9769,CULFORD,WA,3.4,-32.57,116.44,335
9976,PINJARRA SOUTH,WA,3.4,-32.65,115.86,13
9989,THOMSON BROOK,WA,3.4,-33.65,115.96,260
13044,WILUNA AERO,WA,3.4,-26.63,120.22,502
22011,MOONTA,SA,3.4,-34.07,137.59,20
41175,APPLETHORPE,QLD,3.4,-28.62,151.95,872
54003,BARRABA (CLIFTON LANE),NSW,3.4,-30.38,150.61,499
56032,TENTERFIELD (FEDERATION PARK),NSW,3.4,-29.05,152.02,838
65034,WELLINGTON (D&J RURAL),NSW,3.4,-32.56,148.95,305
68228,BELLAMBI AWS,NSW,3.4,-34.37,150.93,10
68247,BEAUMONT (THE CEDARS),NSW,3.4,-34.77,150.56,250
69017,MONTAGUE ISLAND LIGHTHOUSE,NSW,3.4,-36.25,150.23,52
69018,MORUYA HEADS PILOT STATION,NSW,3.4,-35.91,150.15,17
69022,NAROOMA (MARINE RESCUE),NSW,3.4,-36.21,150.14,25
70263,GOULBURN TAFE,NSW,3.4,-34.75,149.70,670
80131,ST ARNAUD (COONOOER BRIDGE (YAWONG)),VIC,3.4,-36.44,143.31,154
90035,COLAC (MOUNT GELLIBRAND),VIC,3.4,-38.23,143.79,261
92124,MARIA ISLAND (POINT LESUEUR),TAS,3.4,-42.66,148.02,28
3057,CYGNET BAY,WA,3.3,-16.45,123.01,7
5084,THEVENARD ISLAND,WA,3.2,-21.46,115.02,5
5094,BARROW ISLAND AIRPORT,WA,3.2,-20.87,115.41,6
9278,YOONGARILLUP TBRG,WA,3.2,-33.74,115.47,54
10531,CHERRY TREE,WA,3.2,-33.70,117.27,295
22020,WALLAROO,SA,3.2,-33.93,137.64,25
24592,CALLINGTON HILL (COLRAE),SA,3.2,-35.08,139.07,216
43060,HAVELOCK,QLD,3.2,-26.08,147.90,434
62036,ULAN WATER,NSW,3.2,-32.28,149.74,420
63245,MANDURAMA POST OFFICE,NSW,3.2,-33.65,149.08,661
67108,BADGERYS CREEK AWS,NSW,3.2,-33.90,150.73,81
69148,MORUYA AIRPORT AWS,NSW,3.2,-35.90,150.14,4
73137,MUTTAMA (GROVENE),NSW,3.2,-34.80,148.12,270
109518,PRESTON VALE VINEYARD,WA,3.2,-33.56,116.04,109
10655,WILLIAMS,WA,3.1,-33.03,116.88,260
5029,YALLEEN,WA,3.0,-21.68,116.39,180
9587,NEWBICUP,WA,3.0,-34.00,116.43,240
9868,MUNGLINUP,WA,3.0,-33.71,120.87,80
9984,VASSE HWY CB3,WA,3.0,-33.70,115.40,-999
14810,BULLO RIVER,NT,3.0,-15.47,129.77,6
18014,CLEVE,SA,3.0,-33.70,136.49,193
22050,KADINA AWS,SA,3.0,-33.97,137.66,41
23885,NOARLUNGA,SA,3.0,-35.16,138.51,55
32001,BAMBAROO,QLD,3.0,-18.88,146.17,13
32020,MARCO STREET ALERT,QLD,3.0,-17.56,145.96,140
32163,INNISFAIL WHARF ALERT,QLD,3.0,-17.52,146.03,10
32165,NERADA ALERT,QLD,3.0,-17.53,145.85,43
32166,TUNG OIL ALERT,QLD,3.0,-17.55,145.93,22
33267,MT DANGAR ALERT,QLD,3.0,-20.22,148.12,46
33268,REEVES ALERT,QLD,3.0,-20.15,148.16,27
35264,EMERALD AIRPORT,QLD,3.0,-23.57,148.18,189
36160,FRANKFIELD STATION,QLD,3.0,-22.27,147.09,240
39193,MT LAWLESS TM,QLD,3.0,-25.55,151.66,104
41230,LIMEVALE TM,QLD,3.0,-28.73,151.18,320
41503,WARWICK (SCOTS COLLEGE) TM,QLD,3.0,-28.22,152.05,446
44223,DERBYSHIRE DOWNS,QLD,3.0,-25.45,147.30,507
61360,SCONE (KINGDON PONDS),NSW,3.0,-32.05,150.85,198
61401,SCONE (FIGTREE GULLY),NSW,3.0,-32.04,150.90,490
63283,HAMPTON (BINDO),NSW,3.0,-33.70,150.03,1095
67112,NORTH ROCKS (MUIRFIELD GOLF CLUB),NSW,3.0,-33.77,151.02,40
68255,BOWRAL (ORCHARD ST),NSW,3.0,-34.49,150.40,720
69062,SNOWBALL,NSW,3.0,-35.94,149.59,870
70330,GOULBURN AIRPORT AWS,NSW,3.0,-34.81,149.73,640
78007,COPE COPE,VIC,3.0,-36.44,143.12,139
109511,PORONGURUPS,WA,3.0,-34.66,117.89,250
9603,BUSSELTON AERO,WA,2.8,-33.68,115.40,16
10308,TOODYAY EAST,WA,2.8,-31.55,116.49,150
10519,BORDEN,WA,2.8,-34.07,118.26,220
14867,UPPER WICKHAM RIVER,NT,2.8,-16.96,130.57,242
23146,STEINGARTEN VINEYARD (STEINGARTEN),SA,2.8,-34.60,138.96,463
23752,WILLIAMSTOWN,SA,2.8,-34.65,138.88,260
23783,MYPONGA RESERVOIR,SA,2.8,-35.40,138.43,215
24511,EUDUNDA,SA,2.8,-34.18,139.09,420
24591,HARROGATE (MOUNT BEEVOR SOUTH),SA,2.8,-34.93,139.03,489
25562,LAMEROO (AUSTIN PLAINS),SA,2.8,-35.38,140.54,110
50017,WEST WYALONG AIRPORT AWS,NSW,2.8,-33.94,147.20,257
65110,BORENORE (LYNDEN-BRAE),NSW,2.8,-33.25,148.98,840
66124,PARRAMATTA NORTH (MASONS DRIVE),NSW,2.8,-33.79,151.02,55
69002,BEGA (NEWTOWN ROAD),NSW,2.8,-36.69,149.84,50
70333,NARRAWA (LACHLAN RIVER),NSW,2.8,-34.40,149.09,460
77098,RAINBOW RADAR RAIN GAUGE,VIC,2.8,-36.00,142.01,115
78032,GERANG GERUNG (COMPARISON),VIC,2.8,-36.40,141.88,135
79100,HORSHAM AERODROME,VIC,2.8,-36.67,142.17,134
79102,MAROO WEST (WARRANOOKE (GLENORCHY) COMPA,VIC,2.8,-36.73,142.73,150
80027,KORONG VALE (BURNBANK),VIC,2.8,-36.32,143.74,135
82041,SPRINGHURST,VIC,2.8,-36.19,146.47,190
23714,FINNISS,SA,2.7,-35.37,138.81,35
24504,BOWER,SA,2.7,-34.12,139.36,115
9519,CAPE NATURALISTE,WA,2.6,-33.54,115.02,109
10304,NUNILE,WA,2.6,-31.49,116.54,280
10311,YORK,WA,2.6,-31.90,116.77,179
16090,COOBER PEDY AIRPORT,SA,2.6,-29.03,134.72,225
18116,CLEVE AERODROME,SA,2.6,-33.71,136.50,175
18190,BUCKLEBOO (KARINYA),SA,2.6,-32.90,136.19,235
23137,REGENCY PARK,SA,2.6,-34.87,138.57,10
24564,BLANCHETOWN LOCK 1,SA,2.6,-34.35,139.62,11
28008,LOCKHART RIVER AIRPORT,QLD,2.6,-12.79,143.30,19
29141,CLONCURRY AIRPORT,QLD,2.6,-20.67,140.51,186
39066,GAYNDAH AIRPORT,QLD,2.6,-25.62,151.62,111
41100,TEXAS POST OFFICE,QLD,2.6,-28.85,151.17,295
43020,MITCHELL POST OFFICE,QLD,2.6,-26.49,147.98,337
61185,HUNTER RIVER (GLENBAWN DAM D/S),NSW,2.6,-32.11,150.99,230
63005,BATHURST AGRICULTURAL STATION,NSW,2.6,-33.43,149.56,713
68242,KIAMA (BOMBO HEADLAND),NSW,2.6,-34.65,150.86,16
68246,BLACKBUTT (TAMMAR PLACE),NSW,2.6,-34.57,150.84,62
68264,JERVIS BAY NSW (JERVIS BAY AIRFIELD AWS),NSW,2.6,-35.14,150.70,57
77099,RAINBOW (PIGICK COMPARISON),VIC,2.6,-35.87,141.82,91
78015,NHILL AERODROME,VIC,2.6,-36.31,141.65,139
82056,WODONGA,VIC,2.6,-36.12,146.91,156
82172,HUON (BARKLEYS CAMP),VIC,2.6,-36.25,147.10,207
94048,OPOSSUM BAY,TAS,2.6,-43.00,147.41,35
29118,CALTON HILLS STATION,QLD,2.5,-20.14,139.41,350
54104,PINDARI DAM,NSW,2.5,-29.39,151.24,462
54141,GWYDER RIVER (GRAVESEND RD BDG (GWYDIR R,NSW,2.5,-29.58,150.37,-999
67109,BAULKHAM HILLS EUCALYPTUS CT,NSW,2.5,-33.77,150.98,100
9033,NEW NORCIA,WA,2.4,-30.97,116.22,220
9210,LAKE NAMMEN,WA,2.4,-30.89,115.58,70
9987,PAYNEDALE ALERT,WA,2.4,-33.64,115.70,100
10043,CALJIE,WA,2.4,-31.77,116.92,219
10542,DARKAN,WA,2.4,-33.34,116.74,280
22022,PORT CLINTON (YARAROO),SA,2.4,-34.14,138.01,118
23076,PORT PARHAM,SA,2.4,-34.43,138.26,3
32200,INGHAM AERO,QLD,2.4,-18.67,146.15,14
44010,BOLLON MARY ST,QLD,2.4,-28.03,147.48,183
47053,WENTWORTH POST OFFICE,NSW,2.4,-34.11,141.92,37
56008,DEEPWATER POST OFFICE,NSW,2.4,-29.44,151.85,970
61288,LOSTOCK DAM,NSW,2.4,-32.33,151.46,200
63076,SOFALA OLD POST OFFICE,NSW,2.4,-33.08,149.69,579
63226,LITHGOW (COOERWULL),NSW,2.4,-33.48,150.13,900
66006,SYDNEY BOTANIC GARDENS,NSW,2.4,-33.87,151.22,15
68263,HOLSWORTHY DEFENCE AWS,NSW,2.4,-34.08,150.90,165
69114,BROGO (BLANCHARDS ROAD),NSW,2.4,-36.54,149.82,61
70008,TOMBONG (SNOWY RIVER @ BURNT HUT CROSSIN,NSW,2.4,-36.84,148.93,-999
74267,TALLIMBA (AVONLEA),NSW,2.4,-34.00,146.77,235
79075,RUPANYUP (POST OFFICE),VIC,2.4,-36.63,142.63,145
82039,RUTHERGLEN RESEARCH,VIC,2.4,-36.10,146.51,175
88009,CAIRN CURRAN RESERVOIR,VIC,2.4,-36.99,143.97,219
8298,TIBRADDEN,WA,2.2,-28.76,114.94,265
8301,BARBERTON EAST,WA,2.2,-30.75,116.13,325
9280,LANCELIN (DEFENCE),WA,2.2,-30.84,115.23,3
9542,ESPERANCE AERO,WA,2.2,-33.68,121.83,142
9988,HAPPY VALLEY,WA,2.2,-33.68,115.62,100
14988,KNUCKEY LAGOON,NT,2.2,-12.44,130.96,32
16067,MOUNT IVE,SA,2.2,-32.44,136.07,177
23373,NURIOOTPA PIRSA,SA,2.2,-34.48,139.01,275
23858,GOULD CREEK (HERMITAGE),SA,2.2,-34.76,138.78,350
24501,AUSTRALIA PLAINS,SA,2.2,-34.10,139.16,281
35185,CAPELLA (ROWE\'S HILL) ALERT,QLD,2.2,-23.12,148.04,484
48245,BOURKE AIRPORT AWS,NSW,2.2,-30.04,145.95,107
54038,NARRABRI AIRPORT AWS,NSW,2.2,-30.32,149.83,229
66161,HOLSWORTHY AERODROME AWS,NSW,2.2,-33.99,150.95,68
66212,SYDNEY OLYMPIC PARK AWS (ARCHERY CENTRE),NSW,2.2,-33.83,151.07,4
69139,BEGA AWS,NSW,2.2,-36.67,149.82,41
70309,DELEGATE RIVER AT QUIDONG,NSW,2.2,-36.91,149.04,650
73138,YOUNG AIRPORT,NSW,2.2,-34.25,148.25,380
74042,FINLEY POST OFFICE,NSW,2.2,-35.64,145.58,110
75041,GRIFFITH AIRPORT AWS,NSW,2.2,-34.25,146.07,134
83079,LAKE BUFFALO,VIC,2.2,-36.71,146.67,296
2032,WARMUN,WA,2.1,-17.02,128.22,203
2074,MOOLA BULLA AIRSTRIP,WA,2.0,-18.20,127.49,440
8286,WUNDI,WA,2.0,-28.28,114.68,200
9131,JURIEN BAY,WA,2.0,-30.31,115.03,2
9279,CANTERBURY,WA,2.0,-31.00,116.23,304
9852,CHEYNE BEACH,WA,2.0,-34.89,118.40,60
10546,DUMBLEYUNG,WA,2.0,-33.31,117.74,270
10920,MOUNT WESTDALE,WA,2.0,-32.27,116.67,360
23863,KANMANTOO (MILLBRAE),SA,2.0,-35.02,139.00,252
31187,TOPAZ ALERT,QLD,2.0,-17.47,145.73,689
32009,BINGIL BAY,QLD,2.0,-17.84,146.10,25
32042,TULLY SUGAR MILL,QLD,2.0,-17.94,145.93,19
32094,GAIRLOCH,QLD,2.0,-18.62,146.18,13
32152,TUNG OIL TM,QLD,2.0,-17.55,145.93,9
35292,DUCABROOK AL,QLD,2.0,-23.85,147.40,334
35294,KULUMUR RANGE ALERT,QLD,2.0,-23.80,147.77,362
39201,BELVEDERE,QLD,2.0,-24.33,149.86,94
40708,MONOGORILBY - HOME,QLD,2.0,-26.03,151.06,385
41491,BARONGAROOK TM,QLD,2.0,-28.43,151.47,20
41519,BOOBA SANDS TM,QLD,2.0,-28.58,150.85,-999
41530,YANGAN ALERT,QLD,2.0,-28.20,152.22,496
41533,EMU VALE ALERT,QLD,2.0,-28.23,152.23,511
42105,NINDIGULLY TM,QLD,2.0,-28.42,148.83,25
44117,DIRRANBANDI,QLD,2.0,-28.59,148.23,175
44154,WHYENBAH,QLD,2.0,-28.39,148.31,175
61092,ELDERSLIE,NSW,2.0,-32.59,151.33,45
62107,BYLONG (GLENVIEW),NSW,2.0,-32.47,150.11,566
63287,BATHURST STANLEY STREET (MACQUARIE RIVER,NSW,2.0,-33.41,149.58,650
63298,CHIFLEY DAM (CAMPBELLS RIVER (UPSTREAM C,NSW,2.0,-33.61,149.70,715
63304,ROCKLEY (GLENLEA),NSW,2.0,-33.72,149.51,1024
65051,CUMNOCK TM,NSW,2.0,-32.93,148.76,518
65084,TOOGONG (GLENAYR),NSW,2.0,-33.37,148.59,320
66036,MARRICKVILLE GOLF CLUB,NSW,2.0,-33.92,151.14,6
66048,CONCORD (BRAYS RD),NSW,2.0,-33.85,151.11,15
66058,SANS SOUCI (PUBLIC SCHOOL),NSW,2.0,-33.99,151.13,9
66148,PEAKHURST GOLF CLUB,NSW,2.0,-33.97,151.06,20
66176,AUDLEY (ROYAL NATIONAL PARK),NSW,2.0,-34.06,151.06,120
66213,NORTH RYDE GOLF CLUB,NSW,2.0,-33.80,151.12,84
67061,ROSSMORE (SOUTH CREEK),NSW,2.0,-33.94,150.78,-999
68024,DARKES FOREST (KINTYRE),NSW,2.0,-34.23,150.91,370
68088,SANCTUARY POINT (SALINAS STREET),NSW,2.0,-35.09,150.62,9
68159,WEDDERBURN (BOOALBYN),NSW,2.0,-34.17,150.81,250
68160,CAMPBELLTOWN (KENTLYN (GEORGES RIVER ROA,NSW,2.0,-34.05,150.88,115
68217,BARRENGARRY (THE OLD SCHOOL HOUSE),NSW,2.0,-34.69,150.53,105
68233,GRASSY GULLY (SHOALHAVEN RIVER),NSW,2.0,-34.85,150.43,30
69006,BETTOWYND (BELLARINGAH),NSW,2.0,-35.70,149.79,165
69033,MORUYA (BURRA CREEK),NSW,2.0,-35.90,149.96,20
74249,COLEAMBALLY IRRIGATION,NSW,2.0,-34.80,145.89,121
94055,RICHMOND (BROOKBANK),TAS,2.0,-42.76,147.40,40
109508,DOYLE ROAD CB1,WA,2.0,-33.74,115.34,33
3041,KILTO STATION,WA,1.8,-17.69,122.71,60
8315,GERALDTON AIRPORT,WA,1.8,-28.80,114.70,30
10134,WATTENING,WA,1.8,-31.31,116.52,240
10286,CUNDERDIN AIRFIELD,WA,1.8,-31.62,117.22,217
10692,NEWDEGATE RESEARCH STATION,WA,1.8,-33.11,118.84,320
10917,WANDERING,WA,1.8,-32.67,116.67,275
21019,FARRELL FLAT,SA,1.8,-33.83,138.79,422
23129,MALLALA (DOLAGHANS CROSSING RNDSUP),SA,1.8,-34.46,138.56,42
23357,NURIOOTPA,SA,1.8,-34.47,139.00,270
23380,KAPUNDA WEST (KAPLEE),SA,1.8,-34.30,138.85,391
23894,HINDMARSH ISLAND AWS,SA,1.8,-35.52,138.82,11
24525,PALMER,SA,1.8,-34.85,139.16,192
24584,MURRAY BRIDGE (PALLAMANA AERODROME),SA,1.8,-35.07,139.23,45
25015,PINNAROO,SA,1.8,-35.27,140.91,101
32045,VICTORIA SUGAR MILL,QLD,1.8,-18.65,146.20,10
41430,GLENLYON DAM,QLD,1.8,-28.97,151.47,438
48250,NOONA AWS,NSW,1.8,-31.73,144.93,179
49138,BOOLIGAL (YARTO) COMPARISON,NSW,1.8,-33.52,144.77,95
61260,CESSNOCK AIRPORT AWS,NSW,1.8,-32.79,151.34,67
63291,BATHURST AIRPORT AWS,NSW,1.8,-33.41,149.65,745
66013,CONCORD GOLF CLUB,NSW,1.8,-33.85,151.10,15
66034,ABBOTSFORD (BLACKWALL POINT RD),NSW,1.8,-33.85,151.13,15
66078,LUCAS HEIGHTS (ANSTO),NSW,1.8,-34.05,150.98,140
66214,SYDNEY (OBSERVATORY HILL),NSW,1.8,-33.86,151.20,43
67119,HORSLEY PARK EQUESTRIAN CENTRE AWS,NSW,1.8,-33.85,150.86,100
69147,MERIMBULA AIRPORT AWS,NSW,1.8,-36.91,149.90,2
69150,BRAIDWOOD (MONGARLOWE (LEWESTON)),NSW,1.8,-35.38,150.00,670
72012,CARABOST,NSW,1.8,-35.60,147.73,345
75140,GUNBAR (KELSEY),NSW,1.8,-34.15,145.14,99
78010,DIMBOOLA,VIC,1.8,-36.46,142.03,111
78088,DONALD COMPARISON,VIC,1.8,-36.36,143.00,115
109516,BODDINGTON NORTH,WA,1.8,-32.78,116.48,216
24521,MURRAY BRIDGE,SA,1.7,-35.12,139.26,33
2030,YULMBU,WA,1.6,-17.30,126.92,450
8100,NORTHAMPTON,WA,1.6,-28.35,114.64,180
9557,HOPETOUN,WA,1.6,-33.93,120.09,15
9877,LUDLOW,WA,1.6,-33.60,115.50,15
9977,MANDURAH,WA,1.6,-32.52,115.71,3
9997,RAVENSCLIFFE ALERT,WA,1.6,-33.76,115.84,200
10132,MOUNT HARDEY,WA,1.6,-31.92,116.82,283
10508,BADGEBUP,WA,1.6,-33.64,117.93,300
10515,BEVERLEY,WA,1.6,-32.11,116.92,199
10530,CHAMINGUP,WA,1.6,-33.91,117.10,320
10729,CHILLINUP,WA,1.6,-34.34,118.63,104
10866,CRANHAM,WA,1.6,-33.93,117.33,340
10916,KATANNING,WA,1.6,-33.69,117.61,320
10921,INGLEBOURNE,WA,1.6,-34.24,118.22,180
16097,ERNABELLA (PUKATJA),SA,1.6,-26.26,132.18,703
18022,COWELL,SA,1.6,-33.68,136.91,12
21110,TICKERA,SA,1.6,-33.79,137.71,30
22015,PRICE,SA,1.6,-34.30,138.00,2
23043,HALBURY ROAD SALISBURY (HALBURY ROAD),SA,1.6,-34.76,138.63,25
23096,ADELAIDE (HOPE VALLEY RESERVOIR),SA,1.6,-34.86,138.68,105
23370,STOCKPORT (CLIFTON),SA,1.6,-34.31,138.73,160
23374,HANSBOROUGH,SA,1.6,-34.25,139.02,341
24528,ROBERTSTOWN,SA,1.6,-33.99,139.08,341
35139,LOCHINGTON,QLD,1.6,-23.94,147.53,267
49136,EUABALONG (MOUNT HOPE AWS),NSW,1.6,-32.83,145.88,209
61056,POKOLBIN (BEN EAN),NSW,1.6,-32.80,151.28,140
63308,MARRANGAROO (DEFENCE),NSW,1.6,-33.43,150.14,955
68072,NOWRA RAN AIR STATION AWS,NSW,1.6,-34.95,150.54,109
69132,BRAIDWOOD RACECOURSE AWS,NSW,1.6,-35.43,149.78,665
69144,BLACK RANGE (GRANDVIEW LANE),NSW,1.6,-36.73,149.84,245
78082,WARRACKNABEAL (EARLSTAN COMPARISON),VIC,1.6,-36.27,142.22,119
80036,MINCHA,VIC,1.6,-35.97,144.11,85
82169,CORRYONG AIRPORT,VIC,1.6,-36.18,147.89,290
200001,MIDDLE PERCY ISLAND,QLD,1.6,-21.66,150.27,209
8168,HOWATHARRA,WA,1.5,-28.54,114.62,70
31036,KURANDA RAILWAY STATION,QLD,1.5,-16.82,145.64,340
67110,SEVEN HILLS (RADIO FM 103.2),NSW,1.5,-33.79,150.92,80
67111,NORTH PARRAMATTA (BURNSIDE HOMES),NSW,1.5,-33.79,151.02,50
2056,KUNUNURRA AERO,WA,1.4,-15.78,128.71,44
5017,ONSLOW AIRPORT,WA,1.4,-21.67,115.11,11
6072,EMU CREEK STATION,WA,1.4,-23.03,115.04,111
8005,BARBERTON,WA,1.4,-30.73,116.02,200
8028,NABAWA,WA,1.4,-28.50,114.79,145
8050,GERALDTON TOWN,WA,1.4,-28.78,114.61,3
8057,GREEN GROVE,WA,1.4,-29.55,115.07,30
8304,MOASCAR,WA,1.4,-28.96,114.95,254
9626,PLEASANT VALLEY,WA,1.4,-33.71,121.56,60
9961,HOPETOUN NORTH,WA,1.4,-33.93,120.13,26
10129,MOUNT NODDY,WA,1.4,-31.59,116.89,-999
10792,GAIRDNER,WA,1.4,-34.23,118.94,180
11052,FORREST,WA,1.4,-30.85,128.11,159
12044,MUNGLINUP WEST,WA,1.4,-33.55,120.70,220
21012,BUTE,SA,1.4,-33.86,138.01,109
23369,GREENOCK ALERT,SA,1.4,-34.46,138.92,295
23379,MOUNT RUFUS (DUTTON),SA,1.4,-34.31,139.12,512
24519,MILANG,SA,1.4,-35.41,138.97,8
25502,COOKE PLAINS,SA,1.4,-35.38,139.56,6
35109,BOOROONDARRA,QLD,1.4,-22.82,148.49,200
35146,EMERALD RADAR AL,QLD,1.4,-23.55,148.24,188
42115,LUNDAVRA TM,QLD,1.4,-28.07,149.98,240
62010,STUART TOWN (MOOKER HILL),NSW,1.4,-32.82,149.07,600
67113,PENRITH LAKES AWS,NSW,1.4,-33.72,150.68,25
68151,JERVIS BAY (POINT PERPENDICULAR AWS),NSW,1.4,-35.09,150.80,85
72023,HUME RESERVOIR,NSW,1.4,-36.10,147.03,184
81063,AVOCA,VIC,1.4,-37.08,143.48,213
94250,HOBART AIRPORT,TAS,1.4,-42.83,147.51,2
10520,BOSCABEL,WA,1.3,-33.66,117.05,260
8200,ERADU,WA,1.2,-28.69,115.04,160
8202,BINDI BINDI NORTH,WA,1.2,-30.62,116.38,315
8300,TABLETOP,WA,1.2,-29.07,115.09,240
8302,WONGAN HILLS NORTH,WA,1.2,-30.85,116.72,341
8305,PORT DENISON,WA,1.2,-29.28,114.95,20
9917,PERIVALE ORCHARD,WA,1.2,-33.71,115.79,100
10089,LONG FOREST,WA,1.2,-31.35,116.65,299
10524,BROOKTON,WA,1.2,-32.37,117.01,250
10626,PINGELLY,WA,1.2,-32.53,117.08,297
10647,WAGIN,WA,1.2,-33.31,117.34,256
10919,WILGARRA,WA,1.2,-32.69,116.61,399
23382,ANGASTON (MILTON PARK (CORNBROOK)),SA,1.2,-34.50,139.08,356
23383,GOMERSAL (WOODBRIDGE),SA,1.2,-34.54,138.91,217
24575,KEYNETON (SEDAN HILL RNDSUP),SA,1.2,-34.54,139.19,462
24594,RODWELL CREEK (HIGHLAND VALLEY (GREENHOL,SA,1.2,-35.20,138.92,196
35093,MT MOFFATT NATIONAL PARK,QLD,1.2,-25.02,147.95,610
35129,ROLLESTON AIRPORT,QLD,1.2,-24.46,148.63,220
38076,WINDORAH AIRPORT,QLD,1.2,-25.41,142.66,132
43109,ST GEORGE AIRPORT,QLD,1.2,-28.05,148.60,199
46128,FOWLERS GAP AWS,NSW,1.2,-31.09,141.70,181
46137,BOULLIA,NSW,1.2,-30.07,141.88,100
49000,IVANHOE AERODROME AWS,NSW,1.2,-32.88,144.31,100
65068,PARKES AIRPORT AWS,NSW,1.2,-33.13,148.24,323
65098,NEUREA (FERNFIELD),NSW,1.2,-32.68,148.92,335
65103,FORBES AIRPORT AWS,NSW,1.2,-33.36,147.92,230
66037,SYDNEY AIRPORT AMO,NSW,1.2,-33.95,151.17,6
66126,COLLAROY (LONG REEF GOLF CLUB),NSW,1.2,-33.74,151.31,2
66194,CANTERBURY RACECOURSE AWS,NSW,1.2,-33.91,151.11,3
68241,ALBION PARK (SHELLHARBOUR AIRPORT),NSW,1.2,-34.56,150.79,8
68257,CAMPBELLTOWN (MOUNT ANNAN),NSW,1.2,-34.06,150.77,112
69128,NERRIGA AWS,NSW,1.2,-35.11,150.08,622
69152,CATHCART (MOUNT DARRAGH),NSW,1.2,-36.84,149.52,880
72160,ALBURY AIRPORT AWS,NSW,1.2,-36.07,146.95,164
77052,WOOMELANG,VIC,1.2,-35.68,142.67,79
77100,BIRCHIP (MARLBED COMPARISON),VIC,1.2,-35.80,142.88,90
80024,KERANG (MERAN DOWNS),VIC,1.2,-35.87,143.80,80
3003,BROOME AIRPORT,WA,1.0,-17.95,122.24,7
7019,BULLOO DOWNS,WA,1.0,-24.00,119.57,600
8037,COOROW,WA,1.0,-29.88,116.02,267
8316,YALLALIE BASIN,WA,1.0,-30.38,115.85,274
9037,BADGINGARRA RESEARCH STN,WA,1.0,-30.34,115.54,275
10000,AMERY ACRES,WA,1.0,-31.17,117.07,340
10502,AMELUP,WA,1.0,-34.26,118.22,210
10503,ARDATH,WA,1.0,-32.05,118.07,280
10536,CORRIGIN,WA,1.0,-32.33,117.87,295
10627,PINGRUP,WA,1.0,-33.53,118.51,280
10923,WILLIAMS NORTH,WA,1.0,-33.00,116.85,298
12239,BULGA DOWNS,WA,1.0,-28.50,119.74,439
17110,LEIGH CREEK AIRPORT,SA,1.0,-30.60,138.42,259
21033,MINTARO,SA,1.0,-33.91,138.72,418
21034,MOUNT BRYAN,SA,1.0,-33.56,138.90,519
24531,SEDAN,SA,1.0,-34.57,139.30,95
25002,PURNONG (CLAYPANS),SA,1.0,-34.83,139.67,92
29034,MCKINLAY ROADHOUSE,QLD,1.0,-21.27,141.29,164
31182,GREENHAVEN ALERT,QLD,1.0,-17.59,145.60,860
31185,MILLAA MILLAA ALERT,QLD,1.0,-17.52,145.61,861
31200,RAVENSHOE ALERT,QLD,1.0,-17.59,145.53,1080
32037,SOUTH JOHNSTONE EXP STN,QLD,1.0,-17.61,146.00,18
32117,ALLINGHAM FORREST DRIVE,QLD,1.0,-18.69,146.30,10
32155,CENTRAL MILL TM,QLD,1.0,-17.61,145.98,4
32161,CORSIS ALERT,QLD,1.0,-17.60,145.90,48
32162,CRAWFORDS LOOKOUT ALERT,QLD,1.0,-17.62,145.80,338
32164,MENAVALE ALERT,QLD,1.0,-17.68,145.89,134
32186,MICHAEL CREEK ALERT,QLD,1.0,-18.85,145.91,742
33068,MIRANI MARY STREET,QLD,1.0,-21.16,148.87,43
33290,MT PLEASANT ALERT,QLD,1.0,-20.29,147.90,191
35205,WOORARRA,QLD,1.0,-24.02,147.92,288
41489,MEDPARK BRIDGE TM,QLD,1.0,-28.30,150.29,216
41495,TERRAINE TM,QLD,1.0,-28.48,151.28,318
43038,WALLUMBILLA POST OFFICE,QLD,1.0,-26.59,149.19,322
43100,OLD CASHMERE TM,QLD,1.0,-27.73,148.47,24
43102,MITCHELL TM,QLD,1.0,-26.49,147.98,326
44174,WALLEN,QLD,1.0,-27.62,145.83,221
44230,BINNOWEE AL,QLD,1.0,-26.48,146.09,200
44234,BARRADEEN AL,QLD,1.0,-26.04,146.43,355
47110,NELIA GAARI,NSW,1.0,-32.01,142.82,86
54081,BINGARA (GLENROY),NSW,1.0,-29.70,150.41,285
61110,HOWES VALLEY (COMMISSION RD),NSW,1.0,-32.87,150.79,235
61226,WOLLOMBI (ST JOHNS CHURCH),NSW,1.0,-32.94,151.14,97
61336,PUTTY (THE GIBBA),NSW,1.0,-33.16,150.68,330
62106,MOLONG (BONNIE DOON),NSW,1.0,-32.99,148.93,560
65041,MOLONG POST OFFICE,NSW,1.0,-33.10,148.87,540
66014,CRONULLA SOUTH BOWLING CLUB,NSW,1.0,-34.07,151.15,31
67019,PROSPECT RESERVOIR,NSW,1.0,-33.82,150.91,61
67105,RICHMOND RAAF,NSW,1.0,-33.60,150.78,19
68192,CAMDEN AIRPORT AWS,NSW,1.0,-34.04,150.69,74
68216,MENANGLE BRIDGE (NEPEAN RIVER),NSW,1.0,-34.12,150.74,-999
69049,NERRIGA COMPOSITE,NSW,1.0,-35.12,150.08,630
69127,ARALUEN LOWER (ARALUEN RD),NSW,1.0,-35.69,149.84,145
70119,BIG HILL (GLEN DUSK),NSW,1.0,-34.57,150.00,648
70237,NIMMITABEL (COTTESLOE),NSW,1.0,-36.59,149.38,1190
74110,URANA POST OFFICE,NSW,1.0,-35.33,146.27,125
3101,DAMPIER DOWNS AIRSTRIP,WA,0.8,-18.51,123.47,140
8088,MINGENEW,WA,0.8,-29.19,115.44,153
8317,ANRO TBRG,WA,0.8,-30.36,116.29,320
9575,MARRADONG,WA,0.8,-32.86,116.45,250
10007,BENCUBBIN,WA,0.8,-30.81,117.86,359
10031,YORKRAKINE TBRG,WA,0.8,-31.37,117.59,300
10058,GOOMALLING,WA,0.8,-31.30,116.83,239
10614,NARROGIN,WA,0.8,-32.93,117.18,338
10628,QUAIRADING,WA,0.8,-32.01,117.40,250
10635,RIVERDALE,WA,0.8,-33.79,116.91,260
17089,KALAMURINA,SA,0.8,-27.72,138.25,5
21140,WATERLOO EAST (SCHUTZ ROAD),SA,0.8,-34.00,138.91,498
23348,SHEA-OAK LOG (GREENOCK CREEK),SA,0.8,-34.51,138.84,140
23372,BAROSSA VALLEY (DUCKPONDS CREEK),SA,0.8,-34.45,139.06,352
23822,HARTLEY (PINE HILL),SA,0.8,-35.18,139.02,63
41469,MACALISTER,QLD,0.8,-27.03,151.09,337
46139,GRASMERE,NSW,0.8,-31.42,142.63,172
61143,BULGA (DOWN TOWN),NSW,0.8,-32.65,151.02,69
67081,SHANES PARK (SOUTH CREEK ROAD),NSW,0.8,-33.71,150.77,26
70217,COOMA AIRPORT AWS,NSW,0.8,-36.29,148.97,930
71019,SNOWY RIVER @ DALGETY WEIR,NSW,0.8,-36.51,148.83,-999
71022,BERRIDALE (BOLTON STREET),NSW,0.8,-36.37,148.83,895
77010,HOPETOUN AIRPORT,VIC,0.8,-35.72,142.36,77
77034,QUAMBATOOK SOUTH,VIC,0.8,-35.93,143.50,95
200100,VARANUS ISLAND,WA,0.8,-20.66,115.58,24
1035,PARRY CREEK FARM,WA,0.7,-15.60,128.28,20
21007,BRINKWORTH,SA,0.7,-33.69,138.40,178
3024,UDIALLA,WA,0.6,-17.95,123.74,20
4032,PORT HEDLAND AIRPORT,WA,0.6,-20.37,118.63,6
8008,BERKSHIRE VALLEY,WA,0.6,-30.58,116.14,230
8254,KONDUT,WA,0.6,-30.71,116.77,280
8299,ARRADALE,WA,0.6,-29.11,115.32,270
8307,COOLANGATTA ALERT,WA,0.6,-28.89,115.44,260
10009,BOLGART,WA,0.6,-31.27,116.51,240
10041,DOONGIN PEAK,WA,0.6,-31.62,117.44,250
10245,BERRING,WA,0.6,-31.30,116.90,257
10556,COONDEE,WA,0.6,-32.48,116.81,262
14041,MIDDLE POINT,NT,0.6,-12.61,131.30,14
14948,PORT KEATS AIRPORT,NT,0.6,-14.25,129.53,28
15131,ELLIOTT,NT,0.6,-17.56,133.54,220
16047,TODMORDEN,SA,0.6,-27.14,134.76,200
20020,YUNTA (PANARAMITEE),SA,0.6,-32.64,139.65,275
21127,SEVENHILL,SA,0.6,-33.88,138.64,480
21133,SNOWTOWN (RAYVILLE PARK),SA,0.6,-33.77,138.22,109
21137,HOYLETON (ROCKLEIGH),SA,0.6,-34.00,138.57,224
23128,BALAKLAVA (DONALEEN RNDSUP),SA,0.6,-34.20,138.60,260
24024,LOXTON RESEARCH CENTRE,SA,0.6,-34.44,140.60,30
24586,MOUNT MARY RNDSUP,SA,0.6,-34.13,139.42,100
31222,CAIRNS RACECOURSE,QLD,0.6,-16.95,145.75,4
33111,MARLBOROUGH HELIPAD TM,QLD,0.6,-22.82,149.89,107
35065,SPRINGSURE COMET ST,QLD,0.6,-24.12,148.09,345
45009,BALLERA GAS FIELD,QLD,0.6,-27.40,141.81,115
46138,WHITE CLIFFS (CAWNALMURTEE),NSW,0.6,-30.58,143.35,146
53115,MOREE AERO,NSW,0.6,-29.49,149.85,213
60152,COBARK,NSW,0.6,-31.96,151.73,300
61430,SINGLETON DEFENCE AWS,NSW,0.6,-32.70,151.16,125
68249,TOUGA,NSW,0.6,-34.96,150.10,533
77097,YAAPEET,VIC,0.6,-35.69,142.00,80
92157,TRIABUNNA (SALMONS FLATS),TAS,0.6,-42.51,147.90,13
8060,SOUTH HOLMWOOD,WA,0.5,-29.04,115.55,240
76038,MURRAYVILLE,VIC,0.5,-35.26,141.18,71
2021,MOUNT AMHURST,WA,0.4,-18.39,126.99,300
2072,BEDFORD DOWNS AIRSTRIP,WA,0.4,-17.28,127.46,531
8137,WONGAN HILLS,WA,0.4,-30.89,116.72,283
8240,COOLANGATTA,WA,0.4,-28.91,115.51,270
8273,ARENA,WA,0.4,-29.36,115.45,280
8296,MORAWA AIRPORT,WA,0.4,-29.20,116.02,271
8308,TARDUN HILL,WA,0.4,-28.80,115.76,340
8309,BELLENDAINE,WA,0.4,-29.30,115.66,240
10061,HAPPY VALLEY,WA,0.4,-31.14,116.96,300
10064,BOLGART BIN,WA,0.4,-31.27,116.51,240
10136,WIALKI SOUTH,WA,0.4,-30.59,118.15,400
10230,WAEEL,WA,0.4,-31.62,117.06,-999
10527,BULYEE,WA,0.4,-32.37,117.52,264
10633,RAVENSTHORPE,WA,0.4,-33.58,120.05,232
10908,YANGEDINE,WA,0.4,-32.03,116.87,260
10912,YEALERING EAST,WA,0.4,-32.59,117.64,286
11003,EUCLA,WA,0.4,-31.68,128.90,93
11019,EYRE,WA,0.4,-32.25,126.30,6
14808,BRADSHAW - ANGALLARI VALLEY (DEFENCE),NT,0.4,-15.44,130.57,60
15664,WALUNGURRU AIRPORT,NT,0.4,-23.27,129.38,454
21029,KOOLUNGA,SA,0.4,-33.59,138.33,125
21057,YACKA,SA,0.4,-33.57,138.45,165
21131,CLARE HIGH SCHOOL,SA,0.4,-33.82,138.59,395
23135,HAMLEY BRIDGE,SA,0.4,-34.37,138.67,113
23349,SADDLEWORTH (GUMDALE),SA,0.4,-34.09,138.79,337
23381,NGAPALA,SA,0.4,-34.06,139.01,509
24025,BERRI,SA,0.4,-34.27,140.60,50
24589,MONARTO SOUTH (MONARTO SECTION 307),SA,0.4,-35.13,139.11,119
24593,WOODCHESTER (CRAIORAH),SA,0.4,-35.19,138.99,92
25050,CALIPH,SA,0.4,-34.63,140.24,68
29167,CENTURY MINE,QLD,0.4,-18.76,138.71,127
31011,CAIRNS AERO,QLD,0.4,-16.87,145.75,2
32192,CARDWELL RANGE,QLD,0.4,-18.55,146.18,15
35293,HEATHWOOD AL,QLD,0.4,-24.34,148.06,312
37053,CARTERS BORE,QLD,0.4,-20.94,139.30,396
37120,WYORA,QLD,0.4,-21.90,143.10,220
44233,BAKERS BEND AL,QLD,0.4,-26.71,146.11,261
46012,WILCANNIA AERODROME AWS,NSW,0.4,-31.52,143.39,94
46126,TIBOOBURRA AIRPORT,NSW,0.4,-29.44,142.06,176
46140,WHITE CLIFFS (MT JACK),NSW,0.4,-30.87,143.71,103
47016,LAKE VICTORIA STORAGE,NSW,0.4,-34.04,141.27,26
47048,BROKEN HILL AIRPORT AWS,NSW,0.4,-32.00,141.47,281
54021,BARRABA (MOUNT LINDSAY),NSW,0.4,-30.32,150.27,869
68007,CAMDEN (BROWNLOW HILL),NSW,0.4,-34.03,150.65,61
69023,NELLIGEN (THULE ROAD),NSW,0.4,-35.65,150.15,5
75019,HAY AIRPORT AWS,NSW,0.4,-34.54,144.83,92
80023,KERANG,VIC,0.4,-35.72,143.92,82
8095,MULLEWA,WA,0.3,-28.54,115.51,268
19037,PORT GERMEIN,SA,0.3,-33.02,138.00,4
21077,BURRA COMMUNITY SCHOOL,SA,0.3,-33.68,138.94,470
36026,ISISFORD POST OFFICE,QLD,0.3,-24.26,144.44,203
43043,YULEBA GARDEN ST,QLD,0.3,-26.61,149.39,295
2077,SIDDINS CREEK,WA,0.2,-16.92,126.55,410
3027,FOSSIL DOWNS,WA,0.2,-18.14,125.78,120
3080,CURTIN AERO,WA,0.2,-17.58,123.83,78
4083,KARRATHA AERO,WA,0.2,-20.71,116.77,5
4090,ROEBOURNE AERO,WA,0.2,-20.76,117.16,11
5098,KARIJINI NORTH,WA,0.2,-22.30,118.45,474
6111,WINDERIE AIRSTRIP,WA,0.2,-25.31,115.15,200
7207,LANDOR AIRSTRIP,WA,0.2,-25.13,116.94,385
7502,GREENOUGH RVR TBRG @ YUIN,WA,0.2,-27.98,116.03,290
8237,TENINDEWA,WA,0.2,-28.69,115.28,260
8290,NORTH ISLAND,WA,0.2,-28.30,113.59,2
8297,DALWALLINU,WA,0.2,-30.28,116.67,325
8310,SOUTH HOLMWOOD ALERT,WA,0.2,-29.03,115.55,260
8318,MINDALLA TBRG,WA,0.2,-30.42,116.46,300
8320,DAISY DOWNS,WA,0.2,-28.38,115.46,294
8321,TALLERING TBRG,WA,0.2,-28.38,115.85,319
10911,LAKE GRACE,WA,0.2,-33.10,118.46,286
12305,LAVERTON AERO,WA,0.2,-28.61,122.42,464
13017,GILES METEOROLOGICAL OFFICE,WA,0.2,-25.03,128.30,598
14806,BIRRIMBA,NT,0.2,-16.42,132.09,209
16098,TARCOOLA AERO,SA,0.2,-30.71,134.58,123
18229,CULTANA (DEFENCE),SA,0.2,-32.68,137.37,171
19114,MINBURRA,SA,0.2,-32.43,138.89,332
21010,BRINKWORTH (BUNGAREE),SA,0.2,-33.75,138.56,368
21031,LAURA,SA,0.2,-33.19,138.30,248
23122,ROSEWORTHY AWS,SA,0.2,-34.51,138.68,65
24008,LYRUP,SA,0.2,-34.26,140.65,22
24530,SEDAN (SANDLETON),SA,0.2,-34.46,139.36,78
24585,SWAN REACH (PONDEROSA RNDSUP),SA,0.2,-34.51,139.53,82
25512,PARRAKIE,SA,0.2,-35.38,140.25,83
27058,HORN ISLAND,QLD,0.2,-10.58,142.29,4
31037,LOW ISLES LIGHTHOUSE,QLD,0.2,-16.38,145.56,3
31209,COOKTOWN AIRPORT,QLD,0.2,-15.45,145.19,5
32043,UPPER STONE EXELBY,QLD,0.2,-18.72,145.92,61
32195,MOUNT STUART (DEFENCE),QLD,0.2,-19.41,146.76,176
33013,COLLINSVILLE POST OFFICE,QLD,0.2,-20.55,147.85,196
35069,TAMBO POST OFFICE,QLD,0.2,-24.88,146.26,395
37059,NEW MAY DOWNS,QLD,0.2,-20.59,139.34,392
41415,WARAHGAI TM,QLD,0.2,-28.24,151.53,488
42104,SURREY TM,QLD,0.2,-28.38,149.67,190
44212,DUNVEGAN TM,QLD,0.2,-26.12,146.62,400
73029,MURRUMBURRAH (HISTORICAL SOCIETY),NSW,0.2,-34.55,148.35,370
75032,HILLSTON AIRPORT,NSW,0.2,-33.49,145.52,122
75160,HAY (NOONAMAH),NSW,0.2,-34.22,144.45,80
76006,TUTYE (BUNUROUK) COMPARISON,VIC,0.2,-35.29,141.49,60
77048,ULTIMA (POST OFFICE),VIC,0.2,-35.47,143.27,79
200283,WILLIS ISLAND,QLD,0.2,-16.29,149.97,9
200284,COCOS ISLAND AIRPORT,WA,0.2,-12.19,96.83,3
8251,KALBARRI,WA,0.1,-27.71,114.17,6
1007,TROUGHTON ISLAND,WA,0.0,-13.75,126.15,6
1019,KALUMBURU,WA,0.0,-14.30,126.65,23
1020,TRUSCOTT,WA,0.0,-14.09,126.39,51
2073,MARGARET RIVER AIRSTRIP,WA,0.0,-18.62,126.88,270
2078,LARRAWA AIRFIELD,WA,0.0,-18.83,126.53,270
2079,HALLS CREEK AIRPORT,WA,0.0,-18.23,127.67,409
3030,BIDYADANGA,WA,0.0,-18.68,121.78,11
3032,DERBY AERO,WA,0.0,-17.37,123.66,6
4004,BAMBOO CREEK,WA,0.0,-20.93,120.21,250
4019,MANDORA,WA,0.0,-19.74,120.84,8
4028,PARDOO STATION,WA,0.0,-20.11,119.58,9
4106,MARBLE BAR,WA,0.0,-21.18,119.75,182
5007,LEARMONTH AIRPORT,WA,0.0,-22.24,114.10,5
5008,MARDIE,WA,0.0,-21.19,115.98,11
5051,EXMOUTH TOWN,WA,0.0,-21.93,114.13,13
6011,CARNARVON AIRPORT,WA,0.0,-24.89,113.67,4
6022,GASCOYNE JUNCTION,WA,0.0,-25.05,115.21,144
6104,MINNIE CREEK AIRSTRIP,WA,0.0,-24.03,115.69,276
6105,SHARK BAY AIRPORT,WA,0.0,-25.89,113.58,34
6112,LYONS RIVER AIRSTRIP,WA,0.0,-24.62,115.33,198
6113,BULLARDOO TBRG,WA,0.0,-27.86,115.67,299
7045,MEEKATHARRA AIRPORT,WA,0.0,-26.61,118.54,517
7068,NINGHAN STATION,WA,0.0,-29.43,117.29,330
7081,THUNDELARRA,WA,0.0,-28.89,117.13,353
7139,PAYNES FIND,WA,0.0,-29.27,117.68,339
7176,NEWMAN AERO,WA,0.0,-23.42,119.80,524
7211,DALGETY DOWNS AIRSTRIP,WA,0.0,-25.27,116.22,307
7501,NARLOO,WA,0.0,-27.88,116.26,337
8025,CARNAMAH,WA,0.0,-29.69,115.89,268
8079,MANARRA,WA,0.0,-29.07,115.63,260
10092,MERREDIN,WA,0.0,-31.48,118.28,315
10192,JOURERDINE,WA,0.0,-30.55,118.28,435
10511,WICKEPIN SOUTH,WA,0.0,-32.80,117.50,380
10568,HYDEN,WA,0.0,-32.44,118.90,299
10905,JACUP,WA,0.0,-33.89,119.11,305
12009,NORSEMAN AERO,WA,0.0,-32.21,121.75,263
12038,KALGOORLIE-BOULDER AIRPORT,WA,0.0,-30.78,121.45,365
12071,SALMON GUMS RES.STN.,WA,0.0,-32.99,121.62,249
12241,LEONORA AERO,WA,0.0,-28.88,121.32,370
12314,LEINSTER AERO,WA,0.0,-27.84,120.70,497
12320,SOUTHERN CROSS AIRFIELD,WA,0.0,-31.24,119.36,347
13011,WARBURTON AIRFIELD,WA,0.0,-26.13,126.58,459
13015,CARNEGIE,WA,0.0,-25.80,122.98,448
13030,TELFER AERO,WA,0.0,-21.71,122.23,292
14015,DARWIN AIRPORT,NT,0.0,-12.42,130.89,30
14055,UPPER ADELAIDE RIVER,NT,0.0,-13.48,131.12,206
14059,FOELSCHE HEADLAND,NT,0.0,-14.08,131.81,203
14062,EDITH FALLS RIDGE,NT,0.0,-14.14,132.19,242
14142,PIRLANGIMPI AIRPORT,NT,0.0,-11.40,130.42,18
14144,MARRARA,NT,0.0,-12.40,130.88,16
14163,DARWIN BOTANIC GARDENS,NT,0.0,-12.44,130.84,15
14198,JABIRU AIRPORT,NT,0.0,-12.66,132.89,27
14224,WANDIE CREEK,NT,0.0,-13.81,132.20,179
14246,LEANYER,NT,0.0,-12.38,130.91,10
14254,POINT STUART,NT,0.0,-12.24,131.88,1
14266,THORAK CEMETERY,NT,0.0,-12.41,130.97,25
14272,BATCHELOR AIRPORT,NT,0.0,-13.05,131.03,104
14274,MCCLUER ISLAND,NT,0.0,-11.05,132.98,1
14277,DUM IN MIRRIE AIRSTRIP,NT,0.0,-12.64,130.37,4
14299,NGUKURR AIRPORT,NT,0.0,-14.72,134.75,15
14306,MERLIN MINE,NT,0.0,-16.82,136.33,190
14308,CROKER ISLAND AIRPORT,NT,0.0,-11.16,132.48,9
14309,MURGANELLA AIRSTRIP,NT,0.0,-11.55,132.93,10
14310,OENPELLI AIRPORT,NT,0.0,-12.33,133.01,8
14314,NOONAMAH AIRSTRIP,NT,0.0,-12.61,131.05,18
14318,EAST POINT,NT,0.0,-12.41,130.83,7
14401,WARRUWI AIRPORT,NT,0.0,-11.65,133.38,19
14404,MILINGIMBI AIRPORT,NT,0.0,-12.09,134.89,15
14405,MANINGRIDA AIRPORT,NT,0.0,-12.06,134.23,28
14412,GOVE AIRPORT,NT,0.0,-12.27,136.82,54
14517,NGAYAWILI,NT,0.0,-12.00,135.57,8
14518,GROOTE EYLANDT AIRPORT,NT,0.0,-13.97,136.46,14
14626,DALY WATERS AIRSTRIP,NT,0.0,-16.26,133.38,210
14627,BULMAN,NT,0.0,-13.67,134.34,103
14648,WEST WATERHOUSE,NT,0.0,-14.14,133.11,322
14651,SNOWDROP CREEK,NT,0.0,-13.83,133.33,384
14652,MARANBOY HILL,NT,0.0,-14.53,132.80,232
14653,CONWAYS,NT,0.0,-14.26,133.59,136
14654,CENTRAL WATERHOUSE,NT,0.0,-14.33,133.12,221
14703,CENTRE ISLAND,NT,0.0,-15.74,136.82,12
14704,MCARTHUR RIVER MINE AIRPORT,NT,0.0,-16.44,136.08,40
14723,BORROLOOLA AIRPORT,NT,0.0,-16.08,136.30,16
14730,UPPER WATERHOUSE RIVER,NT,0.0,-14.11,133.34,262
14828,SHOEING TOOL BORE,NT,0.0,-16.39,131.56,179
14829,LAJAMANU AIRPORT,NT,0.0,-18.33,130.64,316
14830,CATTLE CREEK,NT,0.0,-17.60,131.54,189
14854,SUNSHINE BORE,NT,0.0,-17.86,130.88,250
14901,DOUGLAS RIVER RESEARCH FARM,NT,0.0,-13.83,131.19,43
14906,FISH RIVER,NT,0.0,-14.19,130.88,87
14909,CENTRAL ARNHEM PLATEAU,NT,0.0,-13.33,133.09,416
14932,TINDAL RAAF,NT,0.0,-14.52,132.38,134
14947,UPPER FERGUSSON RIVER,NT,0.0,-14.01,132.21,186
14949,DELAMERE WEAPONS RANGE,NT,0.0,-15.74,131.92,221
14950,MOUNT FELIX,NT,0.0,-14.12,132.64,292
14954,BRADSHAW,NT,0.0,-14.94,130.81,75
14962,YEURALBA RIDGE,NT,0.0,-14.25,132.74,282
14965,UPPER SEVENTEEN MILE CREEK,NT,0.0,-14.19,132.40,220
14966,NITMILUK RIDGE,NT,0.0,-14.31,132.42,212
14970,FANNY CREEK,NT,0.0,-14.11,132.90,218
14972,MOUNT STOW,NT,0.0,-13.85,132.65,322
14981,BRADSHAW - KOOLENDONG VALLEY (DEFENCE),NT,0.0,-15.19,130.12,42
14982,KANGAROO FLATS (DEFENCE),NT,0.0,-12.79,130.85,50
14983,MOUNT BUNDEY NORTH (DEFENCE),NT,0.0,-12.91,131.87,83
14984,MOUNT BUNDEY SOUTH (DEFENCE),NT,0.0,-13.09,131.85,55
14986,HAYWARD CREEK (TIPPERARY),NT,0.0,-13.67,130.88,-999
15135,TENNANT CREEK AIRPORT,NT,0.0,-19.64,134.18,376
15531,HERMANNSBURG,NT,0.0,-23.95,132.77,565
15590,ALICE SPRINGS AIRPORT,NT,0.0,-23.80,133.89,546
15594,ARLTUNGA,NT,0.0,-23.46,134.68,661
15602,JERVOIS,NT,0.0,-22.95,136.14,328
15643,TERRITORY GRAPE FARM,NT,0.0,-22.45,133.64,566
15652,WATARRKA,NT,0.0,-24.29,131.55,614
15666,RABBIT FLAT,NT,0.0,-20.18,130.01,340
16001,WOOMERA AERODROME,SA,0.0,-31.16,136.81,167
16065,ANDAMOOKA,SA,0.0,-30.45,137.17,76
16096,ROXBY DOWNS (OLYMPIC DAM AERODROME),SA,0.0,-30.49,136.87,99
17024,MARREE (FARINA),SA,0.0,-30.07,138.27,91
17043,OODNADATTA AIRPORT,SA,0.0,-27.56,135.45,117
17055,MARREE (WITCHELINA STATION),SA,0.0,-30.02,138.04,165
17099,ARKAROOLA,SA,0.0,-30.31,139.34,318
17123,MOOMBA AIRPORT,SA,0.0,-28.10,140.20,38
17126,MARREE AERO,SA,0.0,-29.66,138.07,50
18120,WHYALLA AERO,SA,0.0,-33.05,137.52,9
18201,PORT AUGUSTA AERO,SA,0.0,-32.51,137.72,14
19017,HAWKER,SA,0.0,-31.90,138.44,340
19062,YONGALA,SA,0.0,-33.03,138.76,521
20028,GLUEPOT RESERVE (GLUEPOT),SA,0.0,-33.76,140.13,57
20062,YUNTA AIRSTRIP,SA,0.0,-32.57,139.56,300
21062,HALLETT (OLD CANOWIE),SA,0.0,-33.30,138.76,575
21063,PORT WAKEFIELD (PAREORA RNDSUP),SA,0.0,-34.16,138.18,13
21130,RHYNIE,SA,0.0,-34.10,138.63,212
21139,PORT PIRIE AERODROME AWS,SA,0.0,-33.24,138.00,12
23864,RED CREEK (BURWOOD),SA,0.0,-35.14,138.97,191
23921,MT BOLD (SCOTT CREEK ALERT),SA,0.0,-35.10,138.67,220
24048,RENMARK AERO,SA,0.0,-34.20,140.68,32
24578,MORGAN (BRENDA PARK STATION),SA,0.0,-34.06,139.66,42
27045,WEIPA AERO,QLD,0.0,-12.68,141.92,18
27073,COEN AIRPORT,QLD,0.0,-13.76,143.12,159
27075,SCHERGER RAAF,QLD,0.0,-12.62,142.09,39
28004,PALMERVILLE,QLD,0.0,-16.00,144.08,204
29038,KOWANYAMA AIRPORT,QLD,0.0,-15.48,141.75,10
29058,JULIA CREEK AIRPORT,QLD,0.0,-20.67,141.72,123
29063,NORMANTON AIRPORT,QLD,0.0,-17.69,141.07,18
29077,BURKETOWN AIRPORT,QLD,0.0,-17.75,139.54,6
29166,RIVERSLEIGH TM,QLD,0.0,-18.97,138.80,115
29182,MORNINGTON ISLAND AIRPORT,QLD,0.0,-16.66,139.17,10
30022,HUGHENDEN AIRPORT,QLD,0.0,-20.82,144.23,316
30124,GEORGETOWN AIRPORT,QLD,0.0,-18.30,143.53,302
30161,RICHMOND AIRPORT,QLD,0.0,-20.70,143.11,206
31062,WHYANBEEL VALLEY,QLD,0.0,-16.39,145.35,6
31108,WALKAMIN RESEARCH STATION,QLD,0.0,-17.13,145.43,594
31181,BARTLE VIEW ALERT,QLD,0.0,-17.55,145.72,580
31183,MALANDA ALERT,QLD,0.0,-17.36,145.59,770
31184,MCKELL ROAD ALERT,QLD,0.0,-17.44,145.51,1038
31186,SUTTIES CREEK ALERT,QLD,0.0,-17.68,145.66,640
31188,MAREEBA TM,QLD,0.0,-17.00,145.43,381
31191,MURRAY SPRINGS ALERT,QLD,0.0,-18.15,145.48,863
31196,MT GARNET ALERT,QLD,0.0,-17.70,145.15,663
31197,UPPER RUDD CREEK ALERT,QLD,0.0,-18.04,144.89,762
31198,HERBERTON ALERT,QLD,0.0,-17.38,145.38,963
31205,COPPERLODE DAM ALERT,QLD,0.0,-16.98,145.67,447
31210,MAREEBA AIRPORT,QLD,0.0,-17.07,145.43,472
32040,TOWNSVILLE AERO,QLD,0.0,-19.25,146.77,4
32050,YABULU QLD NICKEL,QLD,0.0,-19.20,146.61,9
32098,ROLLINGSTONE,QLD,0.0,-19.04,146.41,16
32109,UPPER MURRAY TM,QLD,0.0,-18.11,145.81,22
32142,WHITE CRYSTAL TM,QLD,0.0,-18.68,145.75,690
32160,CENTRAL MILL ALERT,QLD,0.0,-17.61,145.98,25
32169,GLENEAGLE ALERT,QLD,0.0,-18.19,145.33,556
32170,NASH\'S CROSSING ALERT,QLD,0.0,-18.41,145.77,74
32171,INGHAM PUMP STATION AL,QLD,0.0,-18.63,146.14,32
32172,WALLAMAN ALERT,QLD,0.0,-18.46,145.74,686
32173,PEACOCK SIDING ALERT,QLD,0.0,-18.68,146.00,38
32174,ABERGOWRIE ALERT,QLD,0.0,-18.49,145.94,52
32176,KIRRAMA ALERT,QLD,0.0,-18.14,145.61,594
32183,POVERTY HILL ALERT,QLD,0.0,-18.75,146.12,206
32184,ZATTAS ALERT,QLD,0.0,-18.45,145.83,55
32185,HALIFAX ALERT,QLD,0.0,-18.58,146.28,17
32194,COWLEY BEACH (DEFENCE),QLD,0.0,-17.69,146.11,4
32196,TOWNSVILLE- AIR WEAPONS RANGE (DEFENCE),QLD,0.0,-19.30,146.24,386
33002,AYR DPI RESEARCH STN,QLD,0.0,-19.62,147.38,17
33264,BOWEN PUMP STATION ALERT,QLD,0.0,-20.01,148.20,5
33270,UPPER DON ALERT,QLD,0.0,-20.29,148.11,321
33280,POWERLINE TM,QLD,0.0,-19.63,147.11,24
33286,CLARE ALERT,QLD,0.0,-19.76,147.24,9
33287,MILLAROO ALERT,QLD,0.0,-19.97,147.25,19
33288,INKERMAN BRIDGE ALERT,QLD,0.0,-19.64,147.40,3
33289,STRATHBOGIE ALERT,QLD,0.0,-20.14,147.56,176
33291,DALBEG ALERT,QLD,0.0,-20.31,147.30,35
33292,MYUNA ALERT,QLD,0.0,-20.58,147.60,97
33307,WOOLSHED,QLD,0.0,-19.42,146.54,556
